[
  {
    "id": "osm-315673539",
    "name": "1.CfR-Stadion",
    "lat": 48.8829813,
    "lon": 8.6620393,
    "type": "bus"
  },
  {
    "id": "osm-315673540",
    "name": "1.CfR-Stadion",
    "lat": 48.8834138,
    "lon": 8.6611805,
    "type": "bus"
  },
  {
    "id": "osm-7340002495",
    "name": "Abzw. Aubach",
    "lat": 48.6420347,
    "lon": 8.1184294,
    "type": "bus"
  },
  {
    "id": "osm-7340002497",
    "name": "Abzw. Aubach",
    "lat": 48.6424883,
    "lon": 8.1196796,
    "type": "bus"
  },
  {
    "id": "osm-389806787",
    "name": "Abzw. Bosenstein Kernhof",
    "lat": 48.5645083,
    "lon": 8.1941488,
    "type": "bus"
  },
  {
    "id": "osm-8587134884",
    "name": "Abzw. Bosenstein Kernhof",
    "lat": 48.5646627,
    "lon": 8.1942169,
    "type": "bus"
  },
  {
    "id": "osm-882151243",
    "name": "Abzw. Breithurst",
    "lat": 48.6825246,
    "lon": 8.0780386,
    "type": "bus"
  },
  {
    "id": "osm-882151326",
    "name": "Abzw. Breithurst",
    "lat": 48.682698,
    "lon": 8.0779141,
    "type": "bus"
  },
  {
    "id": "osm-9060340521",
    "name": "Abzw. Grunbach",
    "lat": 48.8315937,
    "lon": 8.6629323,
    "type": "bus"
  },
  {
    "id": "osm-2093617001",
    "name": "Abzw. Heimbronner Hof",
    "lat": 48.9743357,
    "lon": 8.7018404,
    "type": "bus"
  },
  {
    "id": "osm-2093617005",
    "name": "Abzw. Heimbronner Hof",
    "lat": 48.9743909,
    "lon": 8.7019216,
    "type": "bus"
  },
  {
    "id": "osm-9105822724",
    "name": "Abzw. Hornenberg",
    "lat": 48.6431623,
    "lon": 8.1414193,
    "type": "bus"
  },
  {
    "id": "osm-2639366911",
    "name": "Abzw. Kirchardt",
    "lat": 49.1935653,
    "lon": 8.9364616,
    "type": "bus"
  },
  {
    "id": "osm-313711936",
    "name": "Abzw. Krankenhaus",
    "lat": 48.8509287,
    "lon": 8.5942107,
    "type": "bus"
  },
  {
    "id": "osm-316686125",
    "name": "Abzw. Krankenhaus",
    "lat": 48.8506514,
    "lon": 8.5947102,
    "type": "bus"
  },
  {
    "id": "osm-5600236770",
    "name": "Abzw. Maisenbacher Sägmühle",
    "lat": 48.7792191,
    "lon": 8.6998557,
    "type": "bus"
  },
  {
    "id": "osm-9700986969",
    "name": "Abzw. Maisenbacher Sägmühle",
    "lat": 48.7795754,
    "lon": 8.6992691,
    "type": "bus"
  },
  {
    "id": "osm-351916308",
    "name": "Abzw. Maulbronn Westbahnhof",
    "lat": 48.9885079,
    "lon": 8.7828316,
    "type": "bus"
  },
  {
    "id": "osm-351916314",
    "name": "Abzw. Maulbronn Westbahnhof",
    "lat": 48.9884534,
    "lon": 8.7816204,
    "type": "bus"
  },
  {
    "id": "osm-302957655",
    "name": "Abzweig B462",
    "lat": 48.8275602,
    "lon": 8.2814059,
    "type": "bus"
  },
  {
    "id": "osm-260635092",
    "name": "Abzweig Ehningen",
    "lat": 48.6555241,
    "lon": 8.9439032,
    "type": "bus"
  },
  {
    "id": "osm-260636736",
    "name": "Abzweig Ehningen",
    "lat": 48.6557012,
    "lon": 8.9454941,
    "type": "bus"
  },
  {
    "id": "osm-309020366",
    "name": "Abzweig Heimig",
    "lat": 48.8790421,
    "lon": 8.6480455,
    "type": "bus"
  },
  {
    "id": "osm-2881643590",
    "name": "Abzweig Hohritt",
    "lat": 48.6156268,
    "lon": 8.1597783,
    "type": "bus"
  },
  {
    "id": "osm-3074183746",
    "name": "Abzweig Hohritt",
    "lat": 48.6157878,
    "lon": 8.1597762,
    "type": "bus"
  },
  {
    "id": "osm-9700986960",
    "name": "Abzweig Schwarzenberg",
    "lat": 48.7835875,
    "lon": 8.6760359,
    "type": "bus"
  },
  {
    "id": "osm-351892732",
    "name": "Abzweigung Aalkistensee",
    "lat": 48.9881194,
    "lon": 8.7623193,
    "type": "bus"
  },
  {
    "id": "osm-351892736",
    "name": "Abzweigung Aalkistensee",
    "lat": 48.987822,
    "lon": 8.7620806,
    "type": "bus"
  },
  {
    "id": "osm-353082564",
    "name": "Abzweigung Dürrn",
    "lat": 48.9469519,
    "lon": 8.7234584,
    "type": "bus"
  },
  {
    "id": "osm-353082566",
    "name": "Abzweigung Dürrn",
    "lat": 48.9461211,
    "lon": 8.7234101,
    "type": "bus"
  },
  {
    "id": "osm-359210868",
    "name": "Abzweigung Unterlegenhardt",
    "lat": 48.781138,
    "lon": 8.695766,
    "type": "bus"
  },
  {
    "id": "osm-359210871",
    "name": "Abzweigung Zainen",
    "lat": 48.7809124,
    "lon": 8.6942599,
    "type": "bus"
  },
  {
    "id": "osm-9383272877",
    "name": "Acacias",
    "lat": 48.8243328,
    "lon": 7.7724506,
    "type": "bus"
  },
  {
    "id": "osm-9383272878",
    "name": "Acacias",
    "lat": 48.8242616,
    "lon": 7.772382,
    "type": "bus"
  },
  {
    "id": "osm-2572552393",
    "name": "Achern",
    "lat": 48.6339021,
    "lon": 8.0653792,
    "type": "train"
  },
  {
    "id": "osm-699685574",
    "name": "Achern Adlerplatz",
    "lat": 48.629023,
    "lon": 8.0711608,
    "type": "bus"
  },
  {
    "id": "osm-664587518",
    "name": "Achern Am wilden Mann",
    "lat": 48.6290914,
    "lon": 8.0787937,
    "type": "bus"
  },
  {
    "id": "osm-664587519",
    "name": "Achern Am wilden Mann",
    "lat": 48.6289596,
    "lon": 8.0783288,
    "type": "bus"
  },
  {
    "id": "osm-3079033927",
    "name": "Achern Badischer Hof",
    "lat": 48.6291669,
    "lon": 8.0711995,
    "type": "bus"
  },
  {
    "id": "osm-13141020126",
    "name": "Achern Boehringer Straße",
    "lat": 48.6294218,
    "lon": 8.0632919,
    "type": "bus"
  },
  {
    "id": "osm-697287622",
    "name": "Achern Eichelberg-Siedlung",
    "lat": 48.6270034,
    "lon": 8.086529,
    "type": "bus"
  },
  {
    "id": "osm-697287623",
    "name": "Achern Eichelberg-Siedlung",
    "lat": 48.6271006,
    "lon": 8.0865368,
    "type": "bus"
  },
  {
    "id": "osm-5042897126",
    "name": "Achern Feldschlössle",
    "lat": 48.6284293,
    "lon": 8.0613818,
    "type": "bus"
  },
  {
    "id": "osm-5843706185",
    "name": "Achern Feldschlössle",
    "lat": 48.6283342,
    "lon": 8.0616568,
    "type": "bus"
  },
  {
    "id": "osm-2542972836",
    "name": "Achern Gemeinschaftsschule",
    "lat": 48.6321911,
    "lon": 8.0725804,
    "type": "bus"
  },
  {
    "id": "osm-7414595606",
    "name": "Achern Gemeinschaftsschule",
    "lat": 48.6323023,
    "lon": 8.0725251,
    "type": "bus"
  },
  {
    "id": "osm-8464172136",
    "name": "Achern Glasmacher Straße",
    "lat": 48.629971,
    "lon": 8.0649469,
    "type": "bus"
  },
  {
    "id": "osm-2542972832",
    "name": "Achern Gymnasium",
    "lat": 48.6358896,
    "lon": 8.0811487,
    "type": "bus"
  },
  {
    "id": "osm-6223059045",
    "name": "Achern Heid",
    "lat": 48.6543656,
    "lon": 8.0631971,
    "type": "bus"
  },
  {
    "id": "osm-6223059048",
    "name": "Achern Heid",
    "lat": 48.6544303,
    "lon": 8.0630368,
    "type": "bus"
  },
  {
    "id": "osm-271472923",
    "name": "Achern Hochhaus",
    "lat": 48.6328199,
    "lon": 8.0833183,
    "type": "bus"
  },
  {
    "id": "osm-271473259",
    "name": "Achern Hochhaus",
    "lat": 48.6334547,
    "lon": 8.0848536,
    "type": "bus"
  },
  {
    "id": "osm-3267600551",
    "name": "Achern Illenau",
    "lat": 48.6240385,
    "lon": 8.0811689,
    "type": "bus"
  },
  {
    "id": "osm-3267600552",
    "name": "Achern Illenau",
    "lat": 48.624026,
    "lon": 8.0810377,
    "type": "bus"
  },
  {
    "id": "osm-8702515864",
    "name": "Achern Krankenhaus",
    "lat": 48.6252849,
    "lon": 8.067505,
    "type": "bus"
  },
  {
    "id": "osm-2542960046",
    "name": "Achern Realschule",
    "lat": 48.6304512,
    "lon": 8.0686752,
    "type": "bus"
  },
  {
    "id": "osm-7414595622",
    "name": "Achern Realschule",
    "lat": 48.6306529,
    "lon": 8.0687969,
    "type": "bus"
  },
  {
    "id": "osm-7431415123",
    "name": "Achern Scheck-In",
    "lat": 48.626783,
    "lon": 8.0555132,
    "type": "bus"
  },
  {
    "id": "osm-7431415124",
    "name": "Achern Scheck-In",
    "lat": 48.6273174,
    "lon": 8.057038,
    "type": "bus"
  },
  {
    "id": "osm-3194912000",
    "name": "Achern Stadt",
    "lat": 48.6254203,
    "lon": 8.0682324,
    "type": "train"
  },
  {
    "id": "osm-442131983",
    "name": "Adelshofen Friedhof",
    "lat": 49.1667176,
    "lon": 8.8896194,
    "type": "bus"
  },
  {
    "id": "osm-13422155104",
    "name": "Adelshofen Friedhof",
    "lat": 49.1667456,
    "lon": 8.8898002,
    "type": "bus"
  },
  {
    "id": "osm-13422155102",
    "name": "Adelshofen Wartbergstraße",
    "lat": 49.1703712,
    "lon": 8.8933528,
    "type": "bus"
  },
  {
    "id": "osm-13422155103",
    "name": "Adelshofen Wartbergstraße",
    "lat": 49.1703673,
    "lon": 8.8934869,
    "type": "bus"
  },
  {
    "id": "osm-4139039493",
    "name": "Adler",
    "lat": 48.8140632,
    "lon": 8.7184426,
    "type": "bus"
  },
  {
    "id": "osm-4139108289",
    "name": "Adler",
    "lat": 48.8141489,
    "lon": 8.7180577,
    "type": "bus"
  },
  {
    "id": "osm-3112374775",
    "name": "Adolf-Ehrmann-Bad",
    "lat": 49.0506921,
    "lon": 8.3849576,
    "type": "train"
  },
  {
    "id": "osm-300898288",
    "name": "Adolf-Richter-Straße",
    "lat": 48.8817298,
    "lon": 8.6585708,
    "type": "bus"
  },
  {
    "id": "osm-340282692",
    "name": "Adolf-Richter-Straße",
    "lat": 48.8814029,
    "lon": 8.6578152,
    "type": "bus"
  },
  {
    "id": "osm-9396265368",
    "name": "Aérodrome",
    "lat": 48.7971312,
    "lon": 7.8126118,
    "type": "bus"
  },
  {
    "id": "osm-290153723",
    "name": "Affstätt Kirche",
    "lat": 48.6073542,
    "lon": 8.8581374,
    "type": "bus"
  },
  {
    "id": "osm-9105516425",
    "name": "Affstätt Kirche",
    "lat": 48.6073546,
    "lon": 8.8581175,
    "type": "bus"
  },
  {
    "id": "osm-290153726",
    "name": "Affstätt Nelkenstraße",
    "lat": 48.6049231,
    "lon": 8.8598074,
    "type": "bus"
  },
  {
    "id": "osm-290153720",
    "name": "Affstätt Rathaus",
    "lat": 48.6068741,
    "lon": 8.8594758,
    "type": "bus"
  },
  {
    "id": "osm-9105516421",
    "name": "Affstätt Rathaus",
    "lat": 48.6068707,
    "lon": 8.8593122,
    "type": "bus"
  },
  {
    "id": "osm-25675422",
    "name": "Agathenstraße",
    "lat": 48.9997094,
    "lon": 8.3343421,
    "type": "bus"
  },
  {
    "id": "osm-4728418665",
    "name": "Agenbach Sonnenhalde",
    "lat": 48.694039,
    "lon": 8.5860421,
    "type": "bus"
  },
  {
    "id": "osm-7081900193",
    "name": "Agenbacher Straße",
    "lat": 48.6891736,
    "lon": 8.6505405,
    "type": "bus"
  },
  {
    "id": "osm-9681233337",
    "name": "Agenbacher Straße",
    "lat": 48.6891977,
    "lon": 8.6506525,
    "type": "bus"
  },
  {
    "id": "osm-489577537",
    "name": "Ahornweg",
    "lat": 48.9122315,
    "lon": 8.5269492,
    "type": "bus"
  },
  {
    "id": "osm-664809668",
    "name": "Aichelberg Forsthaus",
    "lat": 48.6690356,
    "lon": 8.5246683,
    "type": "bus"
  },
  {
    "id": "osm-664809634",
    "name": "Aichelberg Rathaus",
    "lat": 48.6643058,
    "lon": 8.5242809,
    "type": "bus"
  },
  {
    "id": "osm-664809643",
    "name": "Aichelberg Rathaus",
    "lat": 48.6645263,
    "lon": 8.5243669,
    "type": "bus"
  },
  {
    "id": "osm-4985060480",
    "name": "Aichhalden Kirche",
    "lat": 48.6410689,
    "lon": 8.539264,
    "type": "bus"
  },
  {
    "id": "osm-2977996835",
    "name": "Aichhalden Rathaus",
    "lat": 48.6426429,
    "lon": 8.5357005,
    "type": "bus"
  },
  {
    "id": "osm-330046385",
    "name": "Aidlingen Buchhaldenschule",
    "lat": 48.6784443,
    "lon": 8.8913401,
    "type": "bus"
  },
  {
    "id": "osm-775872704",
    "name": "Aidlingen Diakonissenmutterhaus",
    "lat": 48.679736,
    "lon": 8.9209276,
    "type": "bus"
  },
  {
    "id": "osm-918239247",
    "name": "Aidlingen Diakonissenmutterhaus",
    "lat": 48.6796597,
    "lon": 8.9196583,
    "type": "bus"
  },
  {
    "id": "osm-9098643001",
    "name": "Aidlingen Diakonissenmutterhaus",
    "lat": 48.6795902,
    "lon": 8.9196805,
    "type": "bus"
  },
  {
    "id": "osm-9098643002",
    "name": "Aidlingen Diakonissenmutterhaus",
    "lat": 48.6797922,
    "lon": 8.9209232,
    "type": "bus"
  },
  {
    "id": "osm-305747412",
    "name": "Aidlingen Furthmühle",
    "lat": 48.6793806,
    "lon": 8.9054832,
    "type": "bus"
  },
  {
    "id": "osm-1213687712",
    "name": "Aidlingen Furthmühle",
    "lat": 48.6795916,
    "lon": 8.9071515,
    "type": "bus"
  },
  {
    "id": "osm-9098642990",
    "name": "Aidlingen Furthmühle",
    "lat": 48.6794078,
    "lon": 8.9054278,
    "type": "bus"
  },
  {
    "id": "osm-9098642991",
    "name": "Aidlingen Furthmühle",
    "lat": 48.6795319,
    "lon": 8.9071587,
    "type": "bus"
  },
  {
    "id": "osm-1213687739",
    "name": "Aidlingen Hermann-Hesse-Str.",
    "lat": 48.6781186,
    "lon": 8.8868807,
    "type": "bus"
  },
  {
    "id": "osm-4215494874",
    "name": "Aidlingen Hermann-Hesse-Str.",
    "lat": 48.678353,
    "lon": 8.8871652,
    "type": "bus"
  },
  {
    "id": "osm-1213687681",
    "name": "Aidlingen Katholische Kirche",
    "lat": 48.6795534,
    "lon": 8.8940425,
    "type": "bus"
  },
  {
    "id": "osm-1213687698",
    "name": "Aidlingen Katholische Kirche",
    "lat": 48.6785064,
    "lon": 8.894416,
    "type": "bus"
  },
  {
    "id": "osm-9098618746",
    "name": "Aidlingen Katholische Kirche",
    "lat": 48.6795085,
    "lon": 8.8939763,
    "type": "bus"
  },
  {
    "id": "osm-9098618747",
    "name": "Aidlingen Katholische Kirche",
    "lat": 48.6784611,
    "lon": 8.8943594,
    "type": "bus"
  },
  {
    "id": "osm-331284161",
    "name": "Aidlingen Lehenweiler",
    "lat": 48.6996799,
    "lon": 8.8881006,
    "type": "bus"
  },
  {
    "id": "osm-331284171",
    "name": "Aidlingen Lehenweiler",
    "lat": 48.6996729,
    "lon": 8.8880703,
    "type": "bus"
  },
  {
    "id": "osm-1282532753",
    "name": "Aidlingen Lehenweiler Abzweig",
    "lat": 48.6964002,
    "lon": 8.8959049,
    "type": "bus"
  },
  {
    "id": "osm-6404627440",
    "name": "Aidlingen Lehenweiler Abzweig",
    "lat": 48.6963987,
    "lon": 8.8958378,
    "type": "bus"
  },
  {
    "id": "osm-1963711914",
    "name": "Aidlingen Rathaus",
    "lat": 48.6787563,
    "lon": 8.8989977,
    "type": "bus"
  },
  {
    "id": "osm-4215511394",
    "name": "Aidlingen Rathaus",
    "lat": 48.6785587,
    "lon": 8.8987851,
    "type": "bus"
  },
  {
    "id": "osm-6404038091",
    "name": "Aidlingen Rathaus",
    "lat": 48.6786432,
    "lon": 8.8988347,
    "type": "bus"
  },
  {
    "id": "osm-1213687702",
    "name": "Aidlingen Schafhauser Str.",
    "lat": 48.6820816,
    "lon": 8.9038591,
    "type": "bus"
  },
  {
    "id": "osm-11113389886",
    "name": "Aidlingen Schafhauser Str.",
    "lat": 48.6820632,
    "lon": 8.9037034,
    "type": "bus"
  },
  {
    "id": "osm-30002444",
    "name": "Aidlingen Schafhauser Straße",
    "lat": 48.6814011,
    "lon": 8.9042144,
    "type": "bus"
  },
  {
    "id": "osm-1213687705",
    "name": "Aidlingen Schafhauser Straße",
    "lat": 48.6813678,
    "lon": 8.9041005,
    "type": "bus"
  },
  {
    "id": "osm-6404627431",
    "name": "Aidlingen Sonnenbergschule",
    "lat": 48.6818104,
    "lon": 8.894514,
    "type": "bus"
  },
  {
    "id": "osm-6404627432",
    "name": "Aidlingen Sonnenbergschule",
    "lat": 48.681872,
    "lon": 8.8953793,
    "type": "bus"
  },
  {
    "id": "osm-440266154",
    "name": "Airpark Eisstadion",
    "lat": 48.7820374,
    "lon": 8.0976724,
    "type": "bus"
  },
  {
    "id": "osm-440266155",
    "name": "Airpark Eisstadion",
    "lat": 48.7820061,
    "lon": 8.0979441,
    "type": "bus"
  },
  {
    "id": "osm-557212234",
    "name": "Airpark Terminal (FKB)",
    "lat": 48.7783396,
    "lon": 8.0882748,
    "type": "bus"
  },
  {
    "id": "osm-519253994",
    "name": "Airpark Verwaltung",
    "lat": 48.7866308,
    "lon": 8.1003966,
    "type": "bus"
  },
  {
    "id": "osm-519254018",
    "name": "Airpark Verwaltung",
    "lat": 48.7860003,
    "lon": 8.1010191,
    "type": "bus"
  },
  {
    "id": "osm-10081817063",
    "name": "Akademie Neufang",
    "lat": 48.7049538,
    "lon": 8.7623651,
    "type": "bus"
  },
  {
    "id": "osm-10081817064",
    "name": "Akademie Neufang",
    "lat": 48.7048855,
    "lon": 8.7625819,
    "type": "bus"
  },
  {
    "id": "osm-257245290",
    "name": "Albersweiler (Pfalz)",
    "lat": 49.2186082,
    "lon": 8.0240607,
    "type": "train"
  },
  {
    "id": "osm-1793795526",
    "name": "Albersweiler, Am Vogelstock",
    "lat": 49.231403,
    "lon": 7.9989656,
    "type": "bus"
  },
  {
    "id": "osm-1793795527",
    "name": "Albersweiler, Am Vogelstock",
    "lat": 49.2316163,
    "lon": 7.9988096,
    "type": "bus"
  },
  {
    "id": "osm-7638392085",
    "name": "Albersweiler, Bahnhof",
    "lat": 49.2187856,
    "lon": 8.0227274,
    "type": "bus"
  },
  {
    "id": "osm-257718024",
    "name": "Albersweiler, Pfarrer-Hamm-Platz",
    "lat": 49.2189393,
    "lon": 8.0274881,
    "type": "bus"
  },
  {
    "id": "osm-906544367",
    "name": "Albersweiler, Pfarrer-Hamm-Platz",
    "lat": 49.2189976,
    "lon": 8.0274468,
    "type": "bus"
  },
  {
    "id": "osm-931768227",
    "name": "Albersweiler, Steinbruch",
    "lat": 49.2192266,
    "lon": 8.0212667,
    "type": "bus"
  },
  {
    "id": "osm-1783067244",
    "name": "Albersweiler, Steinbruch",
    "lat": 49.2192298,
    "lon": 8.0210446,
    "type": "bus"
  },
  {
    "id": "osm-411674431",
    "name": "Albersweiler, Weinstraße",
    "lat": 49.2144817,
    "lon": 8.0305593,
    "type": "bus"
  },
  {
    "id": "osm-906544409",
    "name": "Albersweiler, Weinstraße",
    "lat": 49.2145689,
    "lon": 8.0306961,
    "type": "bus"
  },
  {
    "id": "osm-11549198341",
    "name": "Albert Calmette",
    "lat": 48.6673333,
    "lon": 7.8038957,
    "type": "bus"
  },
  {
    "id": "osm-10047409409",
    "name": "Albert Zimmer",
    "lat": 48.6580585,
    "lon": 7.8178289,
    "type": "bus"
  },
  {
    "id": "osm-420741106",
    "name": "Albert-Braun-Straße",
    "lat": 48.9890653,
    "lon": 8.3637515,
    "type": "bus"
  },
  {
    "id": "osm-3109761933",
    "name": "Albert-Braun-Straße",
    "lat": 48.9891264,
    "lon": 8.3635523,
    "type": "tram"
  },
  {
    "id": "osm-7047369685",
    "name": "Albrecht-Dürer-Straße",
    "lat": 48.8256111,
    "lon": 8.7933491,
    "type": "bus"
  },
  {
    "id": "osm-7902896342",
    "name": "Albrecht-Dürer-Straße",
    "lat": 48.8256935,
    "lon": 8.7935579,
    "type": "bus"
  },
  {
    "id": "osm-9045900565",
    "name": "Albrecht-Dürer-Straße",
    "lat": 48.8256515,
    "lon": 8.7934425,
    "type": "bus"
  },
  {
    "id": "osm-12219167224",
    "name": "Albrecht-Dürer-Straße",
    "lat": 48.8256353,
    "lon": 8.793517,
    "type": "bus"
  },
  {
    "id": "osm-970158405",
    "name": "Albtalbahnhof",
    "lat": 48.9939586,
    "lon": 8.3955011,
    "type": "bus"
  },
  {
    "id": "osm-2574283873",
    "name": "Albtalbahnhof",
    "lat": 48.9936597,
    "lon": 8.3960901,
    "type": "train"
  },
  {
    "id": "osm-13026610755",
    "name": "Albtalbahnhof Steig A",
    "lat": 48.9937771,
    "lon": 8.3954871,
    "type": "bus"
  },
  {
    "id": "osm-13026610756",
    "name": "Albtalbahnhof Steig B",
    "lat": 48.9938011,
    "lon": 8.3953318,
    "type": "bus"
  },
  {
    "id": "osm-1540767074",
    "name": "Allée Bumb",
    "lat": 48.8296949,
    "lon": 7.7573609,
    "type": "bus"
  },
  {
    "id": "osm-9396265353",
    "name": "Allée des Cerisiers",
    "lat": 48.8074244,
    "lon": 7.8038569,
    "type": "bus"
  },
  {
    "id": "osm-9396265354",
    "name": "Allée des Cerisiers",
    "lat": 48.8072592,
    "lon": 7.803632,
    "type": "bus"
  },
  {
    "id": "osm-1637905311",
    "name": "Allensteiner Straße",
    "lat": 48.8804828,
    "lon": 8.734945,
    "type": "bus"
  },
  {
    "id": "osm-4571763584",
    "name": "Allensteiner Straße",
    "lat": 48.8806258,
    "lon": 8.7348468,
    "type": "bus"
  },
  {
    "id": "osm-5595437963",
    "name": "Allmandle",
    "lat": 48.5856517,
    "lon": 8.4675356,
    "type": "bus"
  },
  {
    "id": "osm-5595437964",
    "name": "Allmandle",
    "lat": 48.5856811,
    "lon": 8.4676917,
    "type": "bus"
  },
  {
    "id": "osm-370422473",
    "name": "Allmendstraße",
    "lat": 48.9060372,
    "lon": 8.8185437,
    "type": "bus"
  },
  {
    "id": "osm-11385905557",
    "name": "Alouettes",
    "lat": 48.6427491,
    "lon": 7.7537944,
    "type": "bus"
  },
  {
    "id": "osm-11385905558",
    "name": "Alouettes",
    "lat": 48.643531,
    "lon": 7.7536539,
    "type": "bus"
  },
  {
    "id": "osm-2390651908",
    "name": "Altbulach Rathaus",
    "lat": 48.6652936,
    "lon": 8.7086204,
    "type": "bus"
  },
  {
    "id": "osm-2390651912",
    "name": "Altbulach Schmiedswiesen",
    "lat": 48.6676522,
    "lon": 8.7124091,
    "type": "bus"
  },
  {
    "id": "osm-9248688151",
    "name": "Altbulach Schmiedswiesen",
    "lat": 48.6676692,
    "lon": 8.7122762,
    "type": "bus"
  },
  {
    "id": "osm-363973796",
    "name": "Altburg Küllenfeld",
    "lat": 48.7221535,
    "lon": 8.7067303,
    "type": "bus"
  },
  {
    "id": "osm-1907555362",
    "name": "Altburg Küllenfeld",
    "lat": 48.7220231,
    "lon": 8.7066381,
    "type": "bus"
  },
  {
    "id": "osm-3578715182",
    "name": "Altburg Lamm",
    "lat": 48.7238199,
    "lon": 8.7025508,
    "type": "bus"
  },
  {
    "id": "osm-8234530103",
    "name": "Altburg Lamm",
    "lat": 48.7239631,
    "lon": 8.7025644,
    "type": "bus"
  },
  {
    "id": "osm-6861093544",
    "name": "Altburg Oberriedt",
    "lat": 48.7193366,
    "lon": 8.7114152,
    "type": "bus"
  },
  {
    "id": "osm-6861093546",
    "name": "Altburg Oberriedt",
    "lat": 48.7204319,
    "lon": 8.7102404,
    "type": "bus"
  },
  {
    "id": "osm-2821884452",
    "name": "Altdorf, Kirchstraße",
    "lat": 49.2871753,
    "lon": 8.2216715,
    "type": "bus"
  },
  {
    "id": "osm-2821884453",
    "name": "Altdorf, Kirchstraße",
    "lat": 49.2871853,
    "lon": 8.2222153,
    "type": "bus"
  },
  {
    "id": "osm-2821884454",
    "name": "Altdorf, Mitte",
    "lat": 49.2864393,
    "lon": 8.2173344,
    "type": "bus"
  },
  {
    "id": "osm-2821884455",
    "name": "Altdorf, Mitte",
    "lat": 49.286454,
    "lon": 8.2169362,
    "type": "bus"
  },
  {
    "id": "osm-3778817397",
    "name": "Alte Bahnhofstraße",
    "lat": 49.2990762,
    "lon": 8.745776,
    "type": "bus"
  },
  {
    "id": "osm-3778817398",
    "name": "Alte Bahnhofstraße",
    "lat": 49.2991944,
    "lon": 8.745795,
    "type": "bus"
  },
  {
    "id": "osm-1709105143",
    "name": "Alte Heerstraße",
    "lat": 49.2923351,
    "lon": 8.6781371,
    "type": "bus"
  },
  {
    "id": "osm-4196207581",
    "name": "Alte Heerstraße",
    "lat": 49.2922809,
    "lon": 8.6783992,
    "type": "bus"
  },
  {
    "id": "osm-25346769",
    "name": "Alte Kreisstraße",
    "lat": 49.0404147,
    "lon": 8.3928477,
    "type": "bus"
  },
  {
    "id": "osm-25346770",
    "name": "Alte Kreisstraße",
    "lat": 49.0404735,
    "lon": 8.3929065,
    "type": "bus"
  },
  {
    "id": "osm-927831141",
    "name": "Alte Mühle",
    "lat": 49.0188016,
    "lon": 8.9359075,
    "type": "bus"
  },
  {
    "id": "osm-310443087",
    "name": "Alte Pforzheimer Straße",
    "lat": 48.8718981,
    "lon": 8.6277614,
    "type": "bus"
  },
  {
    "id": "osm-313191775",
    "name": "Alte Pforzheimer Straße",
    "lat": 48.8713976,
    "lon": 8.6274871,
    "type": "bus"
  },
  {
    "id": "osm-2093151289",
    "name": "Alte Post",
    "lat": 48.9980612,
    "lon": 8.8049072,
    "type": "bus"
  },
  {
    "id": "osm-12104547795",
    "name": "Alte Post",
    "lat": 48.9980166,
    "lon": 8.804905,
    "type": "bus"
  },
  {
    "id": "osm-12104549505",
    "name": "Alte Post",
    "lat": 48.9980478,
    "lon": 8.8046374,
    "type": "bus"
  },
  {
    "id": "osm-456816257",
    "name": "Alte Renninger Straße 111",
    "lat": 48.7572566,
    "lon": 8.8868891,
    "type": "bus"
  },
  {
    "id": "osm-456816267",
    "name": "Alte Renninger Straße 19",
    "lat": 48.7525882,
    "lon": 8.8781944,
    "type": "bus"
  },
  {
    "id": "osm-456816265",
    "name": "Alte Renninger Straße 49",
    "lat": 48.7550851,
    "lon": 8.8812321,
    "type": "bus"
  },
  {
    "id": "osm-311944977",
    "name": "Alte Steiner Straße",
    "lat": 48.9496274,
    "lon": 8.6644088,
    "type": "bus"
  },
  {
    "id": "osm-311944980",
    "name": "Alte Steiner Straße",
    "lat": 48.9492966,
    "lon": 8.6646841,
    "type": "bus"
  },
  {
    "id": "osm-348424320",
    "name": "Alte Ziegelei",
    "lat": 48.7321201,
    "lon": 8.1671484,
    "type": "bus"
  },
  {
    "id": "osm-348424324",
    "name": "Alte Ziegelei",
    "lat": 48.7322564,
    "lon": 8.1672237,
    "type": "bus"
  },
  {
    "id": "osm-303803166",
    "name": "Altenpflegestift Sonne",
    "lat": 48.8772675,
    "lon": 8.6278559,
    "type": "bus"
  },
  {
    "id": "osm-9679573781",
    "name": "Altensteig Bahnhofstraße",
    "lat": 48.5848104,
    "lon": 8.6052749,
    "type": "bus"
  },
  {
    "id": "osm-9679573782",
    "name": "Altensteig Bahnhofstraße",
    "lat": 48.584911,
    "lon": 8.6051974,
    "type": "bus"
  },
  {
    "id": "osm-9679573786",
    "name": "Altensteig Daimlerstraße",
    "lat": 48.5806617,
    "lon": 8.5961203,
    "type": "bus"
  },
  {
    "id": "osm-9679573772",
    "name": "Altensteig Dorferstraße",
    "lat": 48.5909255,
    "lon": 8.6086636,
    "type": "bus"
  },
  {
    "id": "osm-9679573788",
    "name": "Altensteig Fa. Dalli",
    "lat": 48.5805912,
    "lon": 8.5915862,
    "type": "bus"
  },
  {
    "id": "osm-9679573771",
    "name": "Altensteig Feuerwehrhaus",
    "lat": 48.5860534,
    "lon": 8.6110135,
    "type": "bus"
  },
  {
    "id": "osm-4985286451",
    "name": "Altensteig Gewog Siedlung",
    "lat": 48.5886211,
    "lon": 8.6159719,
    "type": "bus"
  },
  {
    "id": "osm-9788242212",
    "name": "Altensteig Gustav-Werner-Straße",
    "lat": 48.5890588,
    "lon": 8.5957436,
    "type": "bus"
  },
  {
    "id": "osm-9788242213",
    "name": "Altensteig Gustav-Werner-Straße",
    "lat": 48.5891369,
    "lon": 8.5956927,
    "type": "bus"
  },
  {
    "id": "osm-4985286450",
    "name": "Altensteig Hintere Speidelstraße",
    "lat": 48.5894546,
    "lon": 8.6156729,
    "type": "bus"
  },
  {
    "id": "osm-9679573774",
    "name": "Altensteig Hohenbergschule Bstg. 1",
    "lat": 48.5886042,
    "lon": 8.6062061,
    "type": "bus"
  },
  {
    "id": "osm-7925094825",
    "name": "Altensteig Hohenbergschule Bstg. 2",
    "lat": 48.5884982,
    "lon": 8.6061573,
    "type": "bus"
  },
  {
    "id": "osm-9679573778",
    "name": "Altensteig Kath. Kirche",
    "lat": 48.5883877,
    "lon": 8.6019645,
    "type": "bus"
  },
  {
    "id": "osm-9679573779",
    "name": "Altensteig Kath. Kirche",
    "lat": 48.5884372,
    "lon": 8.602139,
    "type": "bus"
  },
  {
    "id": "osm-9679573776",
    "name": "Altensteig Kindergarten",
    "lat": 48.5874363,
    "lon": 8.6045296,
    "type": "bus"
  },
  {
    "id": "osm-9679573777",
    "name": "Altensteig Kindergarten",
    "lat": 48.5873594,
    "lon": 8.6043758,
    "type": "bus"
  },
  {
    "id": "osm-4985286447",
    "name": "Altensteig Markgrafenschule Steig 1",
    "lat": 48.5919815,
    "lon": 8.6085471,
    "type": "bus"
  },
  {
    "id": "osm-4985286446",
    "name": "Altensteig Markgrafenschule Steig 2",
    "lat": 48.5918565,
    "lon": 8.6088713,
    "type": "bus"
  },
  {
    "id": "osm-4985286445",
    "name": "Altensteig Markgrafenschule Steig 3",
    "lat": 48.5917056,
    "lon": 8.6088449,
    "type": "bus"
  },
  {
    "id": "osm-4985286444",
    "name": "Altensteig Markgrafenschule Steig 4",
    "lat": 48.5915482,
    "lon": 8.608818,
    "type": "bus"
  },
  {
    "id": "osm-4881384674",
    "name": "Altensteig Markgrafenschule Steig 5",
    "lat": 48.591419,
    "lon": 8.6087815,
    "type": "bus"
  },
  {
    "id": "osm-4985286448",
    "name": "Altensteig Markgrafenschule Steig 6",
    "lat": 48.5908778,
    "lon": 8.6091374,
    "type": "bus"
  },
  {
    "id": "osm-9679573780",
    "name": "Altensteig Marktplatz",
    "lat": 48.5849972,
    "lon": 8.601579,
    "type": "bus"
  },
  {
    "id": "osm-9679573769",
    "name": "Altensteig Obere Reute",
    "lat": 48.5828711,
    "lon": 8.6085927,
    "type": "bus"
  },
  {
    "id": "osm-9679573784",
    "name": "Altensteig Obere Reute",
    "lat": 48.5823477,
    "lon": 8.6081542,
    "type": "bus"
  },
  {
    "id": "osm-9679573770",
    "name": "Altensteig Rathaus",
    "lat": 48.5847856,
    "lon": 8.6015506,
    "type": "bus"
  },
  {
    "id": "osm-9679573773",
    "name": "Altensteig Seniorenzentrum",
    "lat": 48.5893276,
    "lon": 8.6108191,
    "type": "bus"
  },
  {
    "id": "osm-2641971241",
    "name": "Altensteig Vordere Speidelstraße",
    "lat": 48.5879335,
    "lon": 8.6098067,
    "type": "bus"
  },
  {
    "id": "osm-9679573783",
    "name": "Altensteig Waldfriedhof",
    "lat": 48.5838142,
    "lon": 8.6195385,
    "type": "bus"
  },
  {
    "id": "osm-4985286452",
    "name": "Altensteig Welkerstraße",
    "lat": 48.5875634,
    "lon": 8.6110753,
    "type": "bus"
  },
  {
    "id": "osm-7925094730",
    "name": "Altensteigdorf",
    "lat": 48.5934994,
    "lon": 8.6107264,
    "type": "bus"
  },
  {
    "id": "osm-1237745208",
    "name": "Alter Bahnhof",
    "lat": 48.7075603,
    "lon": 8.7394189,
    "type": "bus"
  },
  {
    "id": "osm-1237745373",
    "name": "Alter Bahnhof",
    "lat": 48.7070372,
    "lon": 8.7386396,
    "type": "bus"
  },
  {
    "id": "osm-13395866557",
    "name": "Alter Güterbahnhof",
    "lat": 49.1264834,
    "lon": 8.5899576,
    "type": "bus"
  },
  {
    "id": "osm-5859322257",
    "name": "Alter Messplatz",
    "lat": 49.2389588,
    "lon": 8.4611705,
    "type": "bus"
  },
  {
    "id": "osm-345843057",
    "name": "Altes Rathaus",
    "lat": 48.8179402,
    "lon": 8.7417216,
    "type": "bus"
  },
  {
    "id": "osm-345843061",
    "name": "Altes Rathaus",
    "lat": 48.8178719,
    "lon": 8.7415945,
    "type": "bus"
  },
  {
    "id": "osm-1625916373",
    "name": "Altes Rathaus",
    "lat": 48.8206474,
    "lon": 8.7762967,
    "type": "bus"
  },
  {
    "id": "osm-1623414037",
    "name": "Altes Sägewerk",
    "lat": 48.8738912,
    "lon": 8.7091577,
    "type": "bus"
  },
  {
    "id": "osm-1623414044",
    "name": "Altes Sägewerk",
    "lat": 48.8744497,
    "lon": 8.7086889,
    "type": "bus"
  },
  {
    "id": "osm-4292063574",
    "name": "Altes Sägewerk",
    "lat": 48.8739151,
    "lon": 8.7092039,
    "type": "bus"
  },
  {
    "id": "osm-4292063575",
    "name": "Altes Sägewerk",
    "lat": 48.8744309,
    "lon": 8.708641,
    "type": "bus"
  },
  {
    "id": "osm-773594425",
    "name": "Altes Schulhaus",
    "lat": 48.7914168,
    "lon": 8.7802287,
    "type": "bus"
  },
  {
    "id": "osm-1086467301",
    "name": "Altes Schulhaus",
    "lat": 48.7915409,
    "lon": 8.7802334,
    "type": "bus"
  },
  {
    "id": "osm-360277194",
    "name": "Altes Stadtbad",
    "lat": 49.0002651,
    "lon": 8.8179812,
    "type": "bus"
  },
  {
    "id": "osm-2094833679",
    "name": "Altes Stadtbad",
    "lat": 49.0000874,
    "lon": 8.8185242,
    "type": "bus"
  },
  {
    "id": "osm-13483546435",
    "name": "Althengstett",
    "lat": 48.7268854,
    "lon": 8.7974324,
    "type": "train"
  },
  {
    "id": "osm-401829624",
    "name": "Althengstett Industriegebiet",
    "lat": 48.7274873,
    "lon": 8.7878222,
    "type": "bus"
  },
  {
    "id": "osm-619139012",
    "name": "Althengstett Industriegebiet",
    "lat": 48.7274617,
    "lon": 8.7877447,
    "type": "bus"
  },
  {
    "id": "osm-9241030076",
    "name": "Althengstett Industriegebiet",
    "lat": 48.7276034,
    "lon": 8.7879856,
    "type": "bus"
  },
  {
    "id": "osm-30408053",
    "name": "Altingen (Württ)",
    "lat": 48.5621011,
    "lon": 8.9086775,
    "type": "train"
  },
  {
    "id": "osm-299116114",
    "name": "Altingen Bahnhof",
    "lat": 48.5617154,
    "lon": 8.9093106,
    "type": "bus"
  },
  {
    "id": "osm-299100401",
    "name": "Altingen Kindergarten",
    "lat": 48.5584962,
    "lon": 8.9064729,
    "type": "bus"
  },
  {
    "id": "osm-299100402",
    "name": "Altingen Kindergarten",
    "lat": 48.557988,
    "lon": 8.9063741,
    "type": "bus"
  },
  {
    "id": "osm-302408392",
    "name": "Altingen Kirche",
    "lat": 48.555904,
    "lon": 8.9032557,
    "type": "bus"
  },
  {
    "id": "osm-302408393",
    "name": "Altingen Kirche",
    "lat": 48.5557944,
    "lon": 8.9030958,
    "type": "bus"
  },
  {
    "id": "osm-5090410433",
    "name": "Altingen Ortswaage",
    "lat": 48.5568731,
    "lon": 8.9049312,
    "type": "bus"
  },
  {
    "id": "osm-7505484581",
    "name": "Altingen Ortswaage",
    "lat": 48.5570131,
    "lon": 8.9029779,
    "type": "bus"
  },
  {
    "id": "osm-3378146697",
    "name": "Altlußheim Altreut",
    "lat": 49.295142,
    "lon": 8.5123613,
    "type": "bus"
  },
  {
    "id": "osm-3378146698",
    "name": "Altlußheim Altreut",
    "lat": 49.2959039,
    "lon": 8.5111109,
    "type": "bus"
  },
  {
    "id": "osm-307535747",
    "name": "Altlußheim Hauptstraße 111",
    "lat": 49.2996965,
    "lon": 8.502817,
    "type": "bus"
  },
  {
    "id": "osm-307535748",
    "name": "Altlußheim Quelle",
    "lat": 49.2990529,
    "lon": 8.5039337,
    "type": "bus"
  },
  {
    "id": "osm-1747821679",
    "name": "Altrheinbrücke",
    "lat": 49.0008865,
    "lon": 8.3120042,
    "type": "tram"
  },
  {
    "id": "osm-4066625698",
    "name": "Altrheinbrücke",
    "lat": 49.0009426,
    "lon": 8.312046,
    "type": "bus"
  },
  {
    "id": "osm-12786231848",
    "name": "Altrheinbrücke",
    "lat": 49.0009257,
    "lon": 8.3122311,
    "type": "bus"
  },
  {
    "id": "osm-971003378",
    "name": "Altschweier Grautenbach",
    "lat": 48.6965253,
    "lon": 8.1524651,
    "type": "bus"
  },
  {
    "id": "osm-3073522035",
    "name": "Altschweier Grautenbach",
    "lat": 48.6961905,
    "lon": 8.1514894,
    "type": "bus"
  },
  {
    "id": "osm-1028651125",
    "name": "Altschweier Kirche",
    "lat": 48.6981152,
    "lon": 8.1610632,
    "type": "bus"
  },
  {
    "id": "osm-1028651317",
    "name": "Altschweier Kirche",
    "lat": 48.6982692,
    "lon": 8.1615496,
    "type": "bus"
  },
  {
    "id": "osm-371212373",
    "name": "Altschweier Tankstelle",
    "lat": 48.6992256,
    "lon": 8.1671958,
    "type": "bus"
  },
  {
    "id": "osm-371212407",
    "name": "Altschweier Tankstelle",
    "lat": 48.6991108,
    "lon": 8.1672546,
    "type": "bus"
  },
  {
    "id": "osm-301643523",
    "name": "Altstädter Brücke",
    "lat": 48.889998,
    "lon": 8.7134077,
    "type": "bus"
  },
  {
    "id": "osm-301643525",
    "name": "Altstädter Brücke",
    "lat": 48.8900763,
    "lon": 8.7142977,
    "type": "bus"
  },
  {
    "id": "osm-2386217141",
    "name": "Altwieslocher Straße",
    "lat": 49.2956048,
    "lon": 8.7042758,
    "type": "bus"
  },
  {
    "id": "osm-4339658862",
    "name": "Altwieslocher Straße",
    "lat": 49.2957701,
    "lon": 8.7040809,
    "type": "bus"
  },
  {
    "id": "osm-750013630",
    "name": "Alzenberg Friedhof",
    "lat": 48.7206266,
    "lon": 8.7166664,
    "type": "bus"
  },
  {
    "id": "osm-750013631",
    "name": "Alzenberg Friedhof",
    "lat": 48.7205529,
    "lon": 8.7163419,
    "type": "bus"
  },
  {
    "id": "osm-351924116",
    "name": "Am Anger",
    "lat": 48.9703382,
    "lon": 8.7257787,
    "type": "bus"
  },
  {
    "id": "osm-353082535",
    "name": "Am Anger",
    "lat": 48.9702797,
    "lon": 8.7263158,
    "type": "bus"
  },
  {
    "id": "osm-26980686",
    "name": "Am Bachkanal",
    "lat": 49.0638374,
    "lon": 8.3731653,
    "type": "bus"
  },
  {
    "id": "osm-4017983421",
    "name": "Am Bachkanal",
    "lat": 49.0637223,
    "lon": 8.3733508,
    "type": "bus"
  },
  {
    "id": "osm-2293519625",
    "name": "Am Enzberg",
    "lat": 48.9208051,
    "lon": 8.7580401,
    "type": "bus"
  },
  {
    "id": "osm-2293519626",
    "name": "Am Enzberg",
    "lat": 48.9208801,
    "lon": 8.7580696,
    "type": "bus"
  },
  {
    "id": "osm-320301573",
    "name": "Am Enzenloch",
    "lat": 48.9019917,
    "lon": 8.6600556,
    "type": "bus"
  },
  {
    "id": "osm-320301577",
    "name": "Am Enzenloch",
    "lat": 48.9022266,
    "lon": 8.6601813,
    "type": "bus"
  },
  {
    "id": "osm-4568705702",
    "name": "Am Hauptgüterbahnhof",
    "lat": 48.8971349,
    "lon": 8.7138044,
    "type": "bus"
  },
  {
    "id": "osm-4568715149",
    "name": "Am Hauptgüterbahnhof",
    "lat": 48.8970084,
    "lon": 8.713522,
    "type": "bus"
  },
  {
    "id": "osm-1820495632",
    "name": "Am Heegwald",
    "lat": 49.0175691,
    "lon": 8.4790179,
    "type": "bus"
  },
  {
    "id": "osm-4014639393",
    "name": "Am Heegwald",
    "lat": 49.0177253,
    "lon": 8.4784229,
    "type": "bus"
  },
  {
    "id": "osm-25346771",
    "name": "Am Hubengut",
    "lat": 49.0421728,
    "lon": 8.3904892,
    "type": "bus"
  },
  {
    "id": "osm-25346772",
    "name": "Am Hubengut",
    "lat": 49.0422808,
    "lon": 8.3906648,
    "type": "bus"
  },
  {
    "id": "osm-59860772",
    "name": "Am Kanalweg",
    "lat": 49.0303763,
    "lon": 8.3953824,
    "type": "bus"
  },
  {
    "id": "osm-59860773",
    "name": "Am Kanalweg",
    "lat": 49.0305697,
    "lon": 8.3955418,
    "type": "bus"
  },
  {
    "id": "osm-357518467",
    "name": "Am Mühlkanal",
    "lat": 48.8855705,
    "lon": 8.6690033,
    "type": "bus"
  },
  {
    "id": "osm-357518471",
    "name": "Am Mühlkanal",
    "lat": 48.8855489,
    "lon": 8.6688673,
    "type": "bus"
  },
  {
    "id": "osm-366628187",
    "name": "Am Mühlkanal",
    "lat": 49.0281697,
    "lon": 8.8035183,
    "type": "bus"
  },
  {
    "id": "osm-12163431885",
    "name": "Am Mühlkanal",
    "lat": 49.0281926,
    "lon": 8.8035497,
    "type": "bus"
  },
  {
    "id": "osm-4554254249",
    "name": "Am Nagoldhang",
    "lat": 48.8798273,
    "lon": 8.6835048,
    "type": "bus"
  },
  {
    "id": "osm-4554474257",
    "name": "Am Nagoldhang",
    "lat": 48.8799111,
    "lon": 8.6837451,
    "type": "bus"
  },
  {
    "id": "osm-278825759",
    "name": "Am Neubruch",
    "lat": 48.918146,
    "lon": 8.5330812,
    "type": "bus"
  },
  {
    "id": "osm-4305564925",
    "name": "Am Rötenbad",
    "lat": 48.5687399,
    "lon": 8.7258999,
    "type": "bus"
  },
  {
    "id": "osm-5844890595",
    "name": "Am Rötenbad",
    "lat": 48.5687557,
    "lon": 8.7258053,
    "type": "bus"
  },
  {
    "id": "osm-5846137986",
    "name": "Am Rötenbad",
    "lat": 48.5687873,
    "lon": 8.7254872,
    "type": "bus"
  },
  {
    "id": "osm-9048283868",
    "name": "Am Sägewerk",
    "lat": 48.794751,
    "lon": 8.7701252,
    "type": "bus"
  },
  {
    "id": "osm-9048283869",
    "name": "Am Sägewerk",
    "lat": 48.7949527,
    "lon": 8.7699344,
    "type": "bus"
  },
  {
    "id": "osm-1620145457",
    "name": "Am Schönblick",
    "lat": 48.8511233,
    "lon": 8.6986196,
    "type": "bus"
  },
  {
    "id": "osm-11817086664",
    "name": "Am Schönblick",
    "lat": 48.8511679,
    "lon": 8.6983997,
    "type": "bus"
  },
  {
    "id": "osm-1870249018",
    "name": "Am Schwalbenloch",
    "lat": 49.0006512,
    "lon": 8.5007731,
    "type": "bus"
  },
  {
    "id": "osm-795342056",
    "name": "Am Stadion",
    "lat": 49.0029599,
    "lon": 8.5357295,
    "type": "bus"
  },
  {
    "id": "osm-354938691",
    "name": "Am Steingraben",
    "lat": 48.7699384,
    "lon": 8.1652495,
    "type": "bus"
  },
  {
    "id": "osm-11360288156",
    "name": "Am Steinsee",
    "lat": 48.9157478,
    "lon": 8.7234704,
    "type": "bus"
  },
  {
    "id": "osm-1637870483",
    "name": "Am Waldrand",
    "lat": 48.894736,
    "lon": 8.7492772,
    "type": "bus"
  },
  {
    "id": "osm-11885576069",
    "name": "Am Wasserturm",
    "lat": 48.5623409,
    "lon": 7.8147733,
    "type": "bus"
  },
  {
    "id": "osm-4558736264",
    "name": "Am Windhof",
    "lat": 48.9140777,
    "lon": 8.7198735,
    "type": "bus"
  },
  {
    "id": "osm-4579866985",
    "name": "Am Windhof",
    "lat": 48.9140058,
    "lon": 8.7202541,
    "type": "bus"
  },
  {
    "id": "osm-1380532094",
    "name": "Am Zinken",
    "lat": 49.0584336,
    "lon": 8.3807222,
    "type": "bus"
  },
  {
    "id": "osm-292705631",
    "name": "Amalienstraße",
    "lat": 49.1697031,
    "lon": 8.4951935,
    "type": "bus"
  },
  {
    "id": "osm-292705633",
    "name": "Amalienstraße",
    "lat": 49.1698739,
    "lon": 8.4941914,
    "type": "bus"
  },
  {
    "id": "osm-7775384671",
    "name": "Amazonstraße",
    "lat": 48.9230697,
    "lon": 8.7266271,
    "type": "bus"
  },
  {
    "id": "osm-7775384672",
    "name": "Amazonstraße",
    "lat": 48.9228833,
    "lon": 8.7257272,
    "type": "bus"
  },
  {
    "id": "osm-1637870490",
    "name": "Ammerstraße",
    "lat": 48.8962096,
    "lon": 8.7462755,
    "type": "bus"
  },
  {
    "id": "osm-1998617464",
    "name": "Ammerweg",
    "lat": 49.283253,
    "lon": 8.6752874,
    "type": "bus"
  },
  {
    "id": "osm-1998617465",
    "name": "Ammerweg",
    "lat": 49.2834575,
    "lon": 8.6756783,
    "type": "bus"
  },
  {
    "id": "osm-1360182459",
    "name": "Ampère",
    "lat": 48.5612031,
    "lon": 7.7860264,
    "type": "bus"
  },
  {
    "id": "osm-11375201515",
    "name": "Ampère",
    "lat": 48.5614182,
    "lon": 7.786114,
    "type": "bus"
  },
  {
    "id": "osm-124238589",
    "name": "An der Fayence",
    "lat": 49.0016996,
    "lon": 8.469547,
    "type": "bus"
  },
  {
    "id": "osm-124238591",
    "name": "An der Fayence",
    "lat": 49.0017483,
    "lon": 8.469727,
    "type": "bus"
  },
  {
    "id": "osm-1870249019",
    "name": "An der Pfinz",
    "lat": 49.0059496,
    "lon": 8.5019702,
    "type": "bus"
  },
  {
    "id": "osm-3899708812",
    "name": "An der Tagweide",
    "lat": 49.0212554,
    "lon": 8.4582385,
    "type": "bus"
  },
  {
    "id": "osm-4014639397",
    "name": "An der Tagweide",
    "lat": 49.0210197,
    "lon": 8.4564296,
    "type": "bus"
  },
  {
    "id": "osm-4014639398",
    "name": "An der Tagweide",
    "lat": 49.0210288,
    "lon": 8.4567399,
    "type": "bus"
  },
  {
    "id": "osm-25346148",
    "name": "An der Trift",
    "lat": 49.0457768,
    "lon": 8.3934595,
    "type": "bus"
  },
  {
    "id": "osm-25346149",
    "name": "An der Trift",
    "lat": 49.0459173,
    "lon": 8.3942768,
    "type": "bus"
  },
  {
    "id": "osm-5262035333",
    "name": "Ancienne Douane",
    "lat": 48.8152763,
    "lon": 7.7898956,
    "type": "bus"
  },
  {
    "id": "osm-26004192",
    "name": "Andreas-Hofer-Straße",
    "lat": 49.0029629,
    "lon": 8.3606617,
    "type": "bus"
  },
  {
    "id": "osm-26004195",
    "name": "Andreas-Hofer-Straße",
    "lat": 49.002888,
    "lon": 8.3607782,
    "type": "bus"
  },
  {
    "id": "osm-9615049305",
    "name": "Anita Conti",
    "lat": 48.7983356,
    "lon": 7.7894837,
    "type": "bus"
  },
  {
    "id": "osm-9615049306",
    "name": "Anita Conti",
    "lat": 48.7986494,
    "lon": 7.7885007,
    "type": "bus"
  },
  {
    "id": "osm-1342580064",
    "name": "Ankara",
    "lat": 48.5766144,
    "lon": 7.7705196,
    "type": "bus"
  },
  {
    "id": "osm-2363175040",
    "name": "Ankara",
    "lat": 48.5764453,
    "lon": 7.7711066,
    "type": "bus"
  },
  {
    "id": "osm-35737488",
    "name": "Ankerstraße",
    "lat": 48.9671182,
    "lon": 8.6019809,
    "type": "bus"
  },
  {
    "id": "osm-3111091959",
    "name": "Ankerstraße",
    "lat": 49.0066047,
    "lon": 8.3346458,
    "type": "tram"
  },
  {
    "id": "osm-6392023070",
    "name": "Ankerstraße",
    "lat": 49.0068304,
    "lon": 8.3351389,
    "type": "bus"
  },
  {
    "id": "osm-9094298492",
    "name": "Ankerstraße",
    "lat": 48.9669148,
    "lon": 8.6022265,
    "type": "bus"
  },
  {
    "id": "osm-12786130077",
    "name": "Ankerstraße",
    "lat": 49.0075542,
    "lon": 8.333489,
    "type": "bus"
  },
  {
    "id": "osm-1685964861",
    "name": "Annweiler am Trifels",
    "lat": 49.2054453,
    "lon": 7.9662591,
    "type": "train"
  },
  {
    "id": "osm-2077998926",
    "name": "Annweiler-Sarnstall",
    "lat": 49.2086892,
    "lon": 7.9372553,
    "type": "train"
  },
  {
    "id": "osm-4450650324",
    "name": "Annweiler, Am Flotz",
    "lat": 49.2018862,
    "lon": 7.9548324,
    "type": "bus"
  },
  {
    "id": "osm-4450650325",
    "name": "Annweiler, Am Flotz",
    "lat": 49.2019785,
    "lon": 7.9547909,
    "type": "bus"
  },
  {
    "id": "osm-411674420",
    "name": "Annweiler, Arbeiterheim",
    "lat": 49.2073442,
    "lon": 7.9769575,
    "type": "bus"
  },
  {
    "id": "osm-411674423",
    "name": "Annweiler, Arbeiterheim",
    "lat": 49.2067529,
    "lon": 7.9763394,
    "type": "bus"
  },
  {
    "id": "osm-10683762823",
    "name": "Annweiler, Arbeiterheim",
    "lat": 49.2074013,
    "lon": 7.9773894,
    "type": "bus"
  },
  {
    "id": "osm-442811423",
    "name": "Annweiler, August-Bebel-Straße",
    "lat": 49.2044052,
    "lon": 7.954351,
    "type": "bus"
  },
  {
    "id": "osm-871973442",
    "name": "Annweiler, August-Bebel-Straße",
    "lat": 49.2044384,
    "lon": 7.9541039,
    "type": "bus"
  },
  {
    "id": "osm-871973430",
    "name": "Annweiler, Bahnhof",
    "lat": 49.205034,
    "lon": 7.9661992,
    "type": "bus"
  },
  {
    "id": "osm-906544392",
    "name": "Annweiler, Bahnhof",
    "lat": 49.2051108,
    "lon": 7.9659566,
    "type": "bus"
  },
  {
    "id": "osm-1792521342",
    "name": "Annweiler, Burg Trifels",
    "lat": 49.1943769,
    "lon": 7.9806389,
    "type": "bus"
  },
  {
    "id": "osm-2203683979",
    "name": "Annweiler, Grundschule",
    "lat": 49.2022288,
    "lon": 7.9684756,
    "type": "bus"
  },
  {
    "id": "osm-1785456780",
    "name": "Annweiler, In den Bruchwiesen",
    "lat": 49.2126915,
    "lon": 7.9814752,
    "type": "bus"
  },
  {
    "id": "osm-1785456782",
    "name": "Annweiler, In den Bruchwiesen",
    "lat": 49.2127145,
    "lon": 7.9812999,
    "type": "bus"
  },
  {
    "id": "osm-1792521343",
    "name": "Annweiler, Klettererhütte",
    "lat": 49.1877744,
    "lon": 7.9633878,
    "type": "bus"
  },
  {
    "id": "osm-1792521344",
    "name": "Annweiler, Klettererhütte",
    "lat": 49.1879857,
    "lon": 7.9627697,
    "type": "bus"
  },
  {
    "id": "osm-1780932322",
    "name": "Annweiler, Krankenhaus",
    "lat": 49.2019231,
    "lon": 7.9611029,
    "type": "bus"
  },
  {
    "id": "osm-1792521346",
    "name": "Annweiler, Parkplatz Windhof",
    "lat": 49.1863377,
    "lon": 7.9833629,
    "type": "bus"
  },
  {
    "id": "osm-1792521347",
    "name": "Annweiler, Parkplatz Windhof",
    "lat": 49.1865027,
    "lon": 7.9835621,
    "type": "bus"
  },
  {
    "id": "osm-2746527121",
    "name": "Annweiler, Schulzentrum",
    "lat": 49.2022342,
    "lon": 7.9729785,
    "type": "bus"
  },
  {
    "id": "osm-1785423818",
    "name": "Annweiler, Schwanenweiher",
    "lat": 49.2009131,
    "lon": 7.9674625,
    "type": "bus"
  },
  {
    "id": "osm-1785423819",
    "name": "Annweiler, Schwanenweiher",
    "lat": 49.200983,
    "lon": 7.9674675,
    "type": "bus"
  },
  {
    "id": "osm-1785374219",
    "name": "Annweiler, Schwimmbad",
    "lat": 49.2039017,
    "lon": 7.9546477,
    "type": "bus"
  },
  {
    "id": "osm-1781965569",
    "name": "Annweiler, Sparkasse",
    "lat": 49.2037826,
    "lon": 7.9646917,
    "type": "bus"
  },
  {
    "id": "osm-411674424",
    "name": "Annweiler, Stadion",
    "lat": 49.2091036,
    "lon": 7.9793601,
    "type": "bus"
  },
  {
    "id": "osm-1786698461",
    "name": "Annweiler, Stadion",
    "lat": 49.2091806,
    "lon": 7.9791537,
    "type": "bus"
  },
  {
    "id": "osm-1776639733",
    "name": "Annweiler, Stadtmühle",
    "lat": 49.2038933,
    "lon": 7.9620568,
    "type": "bus"
  },
  {
    "id": "osm-1784825819",
    "name": "Annweiler, Storchentor",
    "lat": 49.2031656,
    "lon": 7.9607049,
    "type": "bus"
  },
  {
    "id": "osm-1780932337",
    "name": "Annweiler, Südring",
    "lat": 49.2023599,
    "lon": 7.9582062,
    "type": "bus"
  },
  {
    "id": "osm-1784825824",
    "name": "Annweiler, Südring",
    "lat": 49.2022636,
    "lon": 7.9578086,
    "type": "bus"
  },
  {
    "id": "osm-1827003428",
    "name": "Annweiler, Trifelsruhe",
    "lat": 49.1912674,
    "lon": 7.9492603,
    "type": "bus"
  },
  {
    "id": "osm-1781997254",
    "name": "Annweiler, Volksbank",
    "lat": 49.2026161,
    "lon": 7.9645758,
    "type": "bus"
  },
  {
    "id": "osm-411674421",
    "name": "Annweiler, Volksgarten",
    "lat": 49.2053012,
    "lon": 7.9726095,
    "type": "bus"
  },
  {
    "id": "osm-411674422",
    "name": "Annweiler, Volksgarten",
    "lat": 49.2045605,
    "lon": 7.9710749,
    "type": "bus"
  },
  {
    "id": "osm-4567060999",
    "name": "Anwaltsstrasse",
    "lat": 48.8551925,
    "lon": 8.6615861,
    "type": "bus"
  },
  {
    "id": "osm-4567061000",
    "name": "Apotheke",
    "lat": 48.8549325,
    "lon": 8.6621029,
    "type": "bus"
  },
  {
    "id": "osm-1491209808",
    "name": "Appenberg-Schule",
    "lat": 48.8618832,
    "lon": 8.8550205,
    "type": "bus"
  },
  {
    "id": "osm-344538615",
    "name": "Appenhofen",
    "lat": 49.1403693,
    "lon": 8.0835782,
    "type": "bus"
  },
  {
    "id": "osm-344538616",
    "name": "Appenhofen",
    "lat": 49.140207,
    "lon": 8.0836604,
    "type": "bus"
  },
  {
    "id": "osm-3111073156",
    "name": "Arbeitsagentur",
    "lat": 49.0034527,
    "lon": 8.3864319,
    "type": "tram"
  },
  {
    "id": "osm-357501387",
    "name": "Arcus Klinik",
    "lat": 48.8979422,
    "lon": 8.6648199,
    "type": "bus"
  },
  {
    "id": "osm-49759742",
    "name": "Aristide Briand",
    "lat": 48.5686278,
    "lon": 7.7768388,
    "type": "tram"
  },
  {
    "id": "osm-1360182297",
    "name": "Aristide Briand",
    "lat": 48.5691524,
    "lon": 7.7767709,
    "type": "bus"
  },
  {
    "id": "osm-1360182301",
    "name": "Aristide Briand",
    "lat": 48.5690718,
    "lon": 7.7767834,
    "type": "bus"
  },
  {
    "id": "osm-1360182303",
    "name": "Aristide Briand",
    "lat": 48.5685951,
    "lon": 7.7764012,
    "type": "bus"
  },
  {
    "id": "osm-1394502608",
    "name": "Aristide Briand",
    "lat": 48.5686068,
    "lon": 7.7768551,
    "type": "tram"
  },
  {
    "id": "osm-2178546746",
    "name": "Aristide Briand",
    "lat": 48.5682215,
    "lon": 7.7762429,
    "type": "bus"
  },
  {
    "id": "osm-6538259097",
    "name": "Aristide Briand",
    "lat": 48.5682677,
    "lon": 7.7776261,
    "type": "bus"
  },
  {
    "id": "osm-1954124892",
    "name": "Arlinger",
    "lat": 48.9120386,
    "lon": 8.7895227,
    "type": "bus"
  },
  {
    "id": "osm-9052425397",
    "name": "Arlinger",
    "lat": 48.9119769,
    "lon": 8.7894225,
    "type": "bus"
  },
  {
    "id": "osm-313188254",
    "name": "Arnbach Blockhütte",
    "lat": 48.8647258,
    "lon": 8.5584777,
    "type": "bus"
  },
  {
    "id": "osm-2094724034",
    "name": "Arnbach Blockhütte",
    "lat": 48.865594,
    "lon": 8.5571202,
    "type": "bus"
  },
  {
    "id": "osm-2094724035",
    "name": "Arnbach Blockhütte",
    "lat": 48.8656864,
    "lon": 8.556972,
    "type": "bus"
  },
  {
    "id": "osm-308647139",
    "name": "Arnbach Rathaus",
    "lat": 48.8602214,
    "lon": 8.5651919,
    "type": "bus"
  },
  {
    "id": "osm-308647142",
    "name": "Arnbach Rathaus",
    "lat": 48.8602156,
    "lon": 8.5649572,
    "type": "bus"
  },
  {
    "id": "osm-308983417",
    "name": "Arnbach Rathaus",
    "lat": 48.8597835,
    "lon": 8.5656293,
    "type": "bus"
  },
  {
    "id": "osm-308983418",
    "name": "Arnbach Rathaus",
    "lat": 48.8599019,
    "lon": 8.565618,
    "type": "bus"
  },
  {
    "id": "osm-12066555920",
    "name": "Arnbach Rathaus",
    "lat": 48.8597476,
    "lon": 8.5649625,
    "type": "bus"
  },
  {
    "id": "osm-12281409930",
    "name": "Arnbach Rathaus",
    "lat": 48.8597056,
    "lon": 8.5647802,
    "type": "bus"
  },
  {
    "id": "osm-8797790473",
    "name": "Arrêt de bus Walbourg",
    "lat": 48.8859995,
    "lon": 7.7931692,
    "type": "bus"
  },
  {
    "id": "osm-344029697",
    "name": "Arzheim, Hauptstraße/Rohrgasse",
    "lat": 49.1941291,
    "lon": 8.0739441,
    "type": "bus"
  },
  {
    "id": "osm-429000253",
    "name": "Arzheim, Hauptstraße/Rohrgasse",
    "lat": 49.1940926,
    "lon": 8.0740177,
    "type": "bus"
  },
  {
    "id": "osm-370752356",
    "name": "Arzheim, Kleine Kalmit",
    "lat": 49.1931344,
    "lon": 8.061338,
    "type": "bus"
  },
  {
    "id": "osm-429000251",
    "name": "Arzheim, Kleine Kalmit",
    "lat": 49.1929868,
    "lon": 8.0609307,
    "type": "bus"
  },
  {
    "id": "osm-368396230",
    "name": "Arzheim, Niederfeld",
    "lat": 49.1954179,
    "lon": 8.0838541,
    "type": "bus"
  },
  {
    "id": "osm-429000254",
    "name": "Arzheim, Niederfeld",
    "lat": 49.1953511,
    "lon": 8.0841486,
    "type": "bus"
  },
  {
    "id": "osm-344029699",
    "name": "Arzheim, Schule",
    "lat": 49.1943255,
    "lon": 8.0674017,
    "type": "bus"
  },
  {
    "id": "osm-429000252",
    "name": "Arzheim, Schule",
    "lat": 49.194243,
    "lon": 8.0673358,
    "type": "bus"
  },
  {
    "id": "osm-10047394635",
    "name": "Atome",
    "lat": 48.6281375,
    "lon": 7.7679376,
    "type": "bus"
  },
  {
    "id": "osm-2189445999",
    "name": "Au am Rhein Diehl",
    "lat": 48.954407,
    "lon": 8.2412236,
    "type": "bus"
  },
  {
    "id": "osm-4485998493",
    "name": "Au am Rhein Elchesheimerstr.",
    "lat": 48.949544,
    "lon": 8.2330668,
    "type": "bus"
  },
  {
    "id": "osm-2089220844",
    "name": "Au am Rhein, Wehrstraße",
    "lat": 48.9515803,
    "lon": 8.2372178,
    "type": "bus"
  },
  {
    "id": "osm-2109398859",
    "name": "Au am Rhein, Wehrstraße",
    "lat": 48.9513542,
    "lon": 8.2372108,
    "type": "bus"
  },
  {
    "id": "osm-2189450374",
    "name": "Au Elchesheimer Straße",
    "lat": 48.9495145,
    "lon": 8.2328473,
    "type": "bus"
  },
  {
    "id": "osm-3112926985",
    "name": "Au im Murgtal",
    "lat": 48.7189278,
    "lon": 8.3622873,
    "type": "train"
  },
  {
    "id": "osm-3212433765",
    "name": "Au Industriegebiet",
    "lat": 48.9451747,
    "lon": 8.2468046,
    "type": "bus"
  },
  {
    "id": "osm-3212433766",
    "name": "Au Industriegebiet",
    "lat": 48.9453319,
    "lon": 8.2463369,
    "type": "bus"
  },
  {
    "id": "osm-300660458",
    "name": "Au Würmersheimer Straße",
    "lat": 48.9497486,
    "lon": 8.2400425,
    "type": "bus"
  },
  {
    "id": "osm-5285958296",
    "name": "Auenheim Blume",
    "lat": 48.6053903,
    "lon": 7.8365828,
    "type": "bus"
  },
  {
    "id": "osm-5839529587",
    "name": "Auenheim Blume",
    "lat": 48.6051783,
    "lon": 7.8360238,
    "type": "bus"
  },
  {
    "id": "osm-6148302938",
    "name": "Auenheim Nord",
    "lat": 48.6076469,
    "lon": 7.8383481,
    "type": "bus"
  },
  {
    "id": "osm-6148302939",
    "name": "Auenheim Nord",
    "lat": 48.6076291,
    "lon": 7.8382194,
    "type": "bus"
  },
  {
    "id": "osm-8768515719",
    "name": "Auenheim Robert-Koch-Straße",
    "lat": 48.5939934,
    "lon": 7.8273565,
    "type": "bus"
  },
  {
    "id": "osm-8768515720",
    "name": "Auenheim Robert-Koch-Straße",
    "lat": 48.593997,
    "lon": 7.8275174,
    "type": "bus"
  },
  {
    "id": "osm-5839531389",
    "name": "Auenheim Ross",
    "lat": 48.602828,
    "lon": 7.8352582,
    "type": "bus"
  },
  {
    "id": "osm-5839531390",
    "name": "Auenheim Ross",
    "lat": 48.6027792,
    "lon": 7.835159,
    "type": "bus"
  },
  {
    "id": "osm-6148302942",
    "name": "Auenheim Süd",
    "lat": 48.6010977,
    "lon": 7.8357598,
    "type": "bus"
  },
  {
    "id": "osm-6148302943",
    "name": "Auenheim Süd",
    "lat": 48.6011368,
    "lon": 7.835847,
    "type": "bus"
  },
  {
    "id": "osm-3098401320",
    "name": "Auer Straße/Dr. Willmar Schwabe",
    "lat": 49.0004421,
    "lon": 8.4634778,
    "type": "tram"
  },
  {
    "id": "osm-278829602",
    "name": "Auerbach Rathaus",
    "lat": 48.9141084,
    "lon": 8.5319716,
    "type": "bus"
  },
  {
    "id": "osm-5843068902",
    "name": "Auerbach Siedlung",
    "lat": 48.9163392,
    "lon": 8.5355093,
    "type": "bus"
  },
  {
    "id": "osm-4014639399",
    "name": "Auf der Breit",
    "lat": 49.020705,
    "lon": 8.4780978,
    "type": "bus"
  },
  {
    "id": "osm-4014639400",
    "name": "Auf der Breit",
    "lat": 49.0208232,
    "lon": 8.4779995,
    "type": "bus"
  },
  {
    "id": "osm-1634630486",
    "name": "Auf der Haardt",
    "lat": 48.7049348,
    "lon": 8.6717112,
    "type": "bus"
  },
  {
    "id": "osm-9242913185",
    "name": "Auf der Haardt",
    "lat": 48.7050726,
    "lon": 8.6716729,
    "type": "bus"
  },
  {
    "id": "osm-310826916",
    "name": "Auf der Höhe",
    "lat": 48.9183735,
    "lon": 8.7451061,
    "type": "bus"
  },
  {
    "id": "osm-444440686",
    "name": "Auf der Römerstraße",
    "lat": 48.9456973,
    "lon": 8.4895487,
    "type": "bus"
  },
  {
    "id": "osm-444440687",
    "name": "Auf der Römerstraße",
    "lat": 48.9458489,
    "lon": 8.489584,
    "type": "bus"
  },
  {
    "id": "osm-2093795005",
    "name": "Auf der Rotplatte",
    "lat": 48.8787591,
    "lon": 8.6672011,
    "type": "bus"
  },
  {
    "id": "osm-4554474258",
    "name": "Auf der Rotplatte",
    "lat": 48.879385,
    "lon": 8.666459,
    "type": "bus"
  },
  {
    "id": "osm-10018589328",
    "name": "Aug.-Dosenbach-Str.",
    "lat": 49.0020754,
    "lon": 8.3429904,
    "type": "bus"
  },
  {
    "id": "osm-7683568909",
    "name": "Augartenstraße",
    "lat": 48.9986823,
    "lon": 8.4036514,
    "type": "tram"
  },
  {
    "id": "osm-311951343",
    "name": "August-Bebel-Straße",
    "lat": 48.8725848,
    "lon": 8.6666602,
    "type": "bus"
  },
  {
    "id": "osm-311951344",
    "name": "August-Bebel-Straße",
    "lat": 48.8724498,
    "lon": 8.6664517,
    "type": "bus"
  },
  {
    "id": "osm-418340781",
    "name": "August-Bebel-Straße",
    "lat": 49.024304,
    "lon": 8.3754451,
    "type": "bus"
  },
  {
    "id": "osm-3112374776",
    "name": "August-Bebel-Straße",
    "lat": 49.0240059,
    "lon": 8.3757438,
    "type": "tram"
  },
  {
    "id": "osm-6392023072",
    "name": "August-Dosenbach-Straße",
    "lat": 49.0020397,
    "lon": 8.3429528,
    "type": "bus"
  },
  {
    "id": "osm-8476348449",
    "name": "August-Hebenstreit-Straße",
    "lat": 48.9419235,
    "lon": 8.8369529,
    "type": "bus"
  },
  {
    "id": "osm-8438984908",
    "name": "August-Lämmle-Straße",
    "lat": 48.950236,
    "lon": 8.8513905,
    "type": "bus"
  },
  {
    "id": "osm-12053088025",
    "name": "August-Lämmle-Straße",
    "lat": 48.9501982,
    "lon": 8.8513273,
    "type": "bus"
  },
  {
    "id": "osm-12053088030",
    "name": "August-Lämmle-Straße",
    "lat": 48.9502744,
    "lon": 8.8514534,
    "type": "bus"
  },
  {
    "id": "osm-766425880",
    "name": "August-Macke-Straße",
    "lat": 48.9871386,
    "lon": 8.4724588,
    "type": "bus"
  },
  {
    "id": "osm-571124534",
    "name": "Auguste-Supper-Straße",
    "lat": 48.8966611,
    "lon": 8.6901305,
    "type": "bus"
  },
  {
    "id": "osm-1870249020",
    "name": "Augustenburg",
    "lat": 49.00427,
    "lon": 8.4987672,
    "type": "bus"
  },
  {
    "id": "osm-1870249021",
    "name": "Augustenburg",
    "lat": 49.0043323,
    "lon": 8.4988932,
    "type": "bus"
  },
  {
    "id": "osm-9248432468",
    "name": "Aurich Abzweig",
    "lat": 48.9169272,
    "lon": 8.9430008,
    "type": "bus"
  },
  {
    "id": "osm-9248459149",
    "name": "Aurich Abzweig",
    "lat": 48.9168898,
    "lon": 8.9428813,
    "type": "bus"
  },
  {
    "id": "osm-5845601619",
    "name": "Ausb.Zentrum Straßenbau",
    "lat": 48.5691353,
    "lon": 8.7318937,
    "type": "bus"
  },
  {
    "id": "osm-5845601620",
    "name": "Ausb.Zentrum Straßenbau",
    "lat": 48.5690752,
    "lon": 8.7320994,
    "type": "bus"
  },
  {
    "id": "osm-374139982",
    "name": "Äußere Dietlinger Straße",
    "lat": 48.8957652,
    "lon": 8.6579287,
    "type": "bus"
  },
  {
    "id": "osm-2094724113",
    "name": "Äußere Dietlinger Straße",
    "lat": 48.8956265,
    "lon": 8.6579225,
    "type": "bus"
  },
  {
    "id": "osm-311855813",
    "name": "Äußere Hirsauer Str.",
    "lat": 48.8723207,
    "lon": 8.6779112,
    "type": "bus"
  },
  {
    "id": "osm-311855815",
    "name": "Äußere Hirsauer Str.",
    "lat": 48.8719788,
    "lon": 8.6783374,
    "type": "bus"
  },
  {
    "id": "osm-310443071",
    "name": "Äußerer Arlinger",
    "lat": 48.8843702,
    "lon": 8.6487459,
    "type": "bus"
  },
  {
    "id": "osm-310443072",
    "name": "Äußerer Arlinger",
    "lat": 48.8842349,
    "lon": 8.6484066,
    "type": "bus"
  },
  {
    "id": "osm-6267113763",
    "name": "Aussichtsplattform Turmberg",
    "lat": 48.997562,
    "lon": 8.4858688,
    "type": "bus"
  },
  {
    "id": "osm-9965568407",
    "name": "Aussichtsturm",
    "lat": 48.7824286,
    "lon": 8.6551224,
    "type": "bus"
  },
  {
    "id": "osm-917559266",
    "name": "Aussiedlerhof",
    "lat": 48.8086026,
    "lon": 8.7843907,
    "type": "bus"
  },
  {
    "id": "osm-917559341",
    "name": "Aussiedlerhof",
    "lat": 48.8082345,
    "lon": 8.7839524,
    "type": "bus"
  },
  {
    "id": "osm-5840679971",
    "name": "Aussiedlerhöfe",
    "lat": 48.9355205,
    "lon": 8.4934352,
    "type": "bus"
  },
  {
    "id": "osm-7088402248",
    "name": "Aussiedlerhöfe",
    "lat": 48.9358258,
    "lon": 8.493448,
    "type": "bus"
  },
  {
    "id": "osm-4994274774",
    "name": "Austerlitz",
    "lat": 48.5780262,
    "lon": 7.7539839,
    "type": "bus"
  },
  {
    "id": "osm-4994274775",
    "name": "Austerlitz",
    "lat": 48.5773592,
    "lon": 7.7522972,
    "type": "bus"
  },
  {
    "id": "osm-317601153",
    "name": "Autohalle",
    "lat": 48.9565694,
    "lon": 8.7521068,
    "type": "bus"
  },
  {
    "id": "osm-10166906801",
    "name": "Autohalle",
    "lat": 48.9565051,
    "lon": 8.7521285,
    "type": "bus"
  },
  {
    "id": "osm-353082550",
    "name": "Auweg",
    "lat": 48.969218,
    "lon": 8.728687,
    "type": "bus"
  },
  {
    "id": "osm-2093617008",
    "name": "Auweg",
    "lat": 48.9700528,
    "lon": 8.728813,
    "type": "bus"
  },
  {
    "id": "osm-9084485310",
    "name": "B 463",
    "lat": 48.6358005,
    "lon": 8.7470779,
    "type": "bus"
  },
  {
    "id": "osm-9084485311",
    "name": "B 463",
    "lat": 48.6367267,
    "lon": 8.7466568,
    "type": "bus"
  },
  {
    "id": "osm-5809489772",
    "name": "B293",
    "lat": 49.027258,
    "lon": 8.5784339,
    "type": "bus"
  },
  {
    "id": "osm-26086170",
    "name": "Bachenweg",
    "lat": 49.0502335,
    "lon": 8.3751522,
    "type": "bus"
  },
  {
    "id": "osm-4017983426",
    "name": "Bachenweg",
    "lat": 49.0502969,
    "lon": 8.3750639,
    "type": "bus"
  },
  {
    "id": "osm-5847742649",
    "name": "Bächlenweg",
    "lat": 48.5500698,
    "lon": 8.710932,
    "type": "bus"
  },
  {
    "id": "osm-5847742650",
    "name": "Bächlenweg",
    "lat": 48.5500779,
    "lon": 8.7110076,
    "type": "bus"
  },
  {
    "id": "osm-321533110",
    "name": "Bachstraße",
    "lat": 48.8758025,
    "lon": 8.5405449,
    "type": "bus"
  },
  {
    "id": "osm-321533111",
    "name": "Bachstraße",
    "lat": 48.8758941,
    "lon": 8.5406693,
    "type": "bus"
  },
  {
    "id": "osm-1954276251",
    "name": "Bachstraße",
    "lat": 48.9052653,
    "lon": 8.8171897,
    "type": "bus"
  },
  {
    "id": "osm-12113457429",
    "name": "Bachstraße",
    "lat": 48.9053244,
    "lon": 8.8162198,
    "type": "bus"
  },
  {
    "id": "osm-5136993185",
    "name": "Backhaus",
    "lat": 48.7379323,
    "lon": 8.7799792,
    "type": "bus"
  },
  {
    "id": "osm-9241030072",
    "name": "Backhaus",
    "lat": 48.737942,
    "lon": 8.7800208,
    "type": "bus"
  },
  {
    "id": "osm-82614216",
    "name": "Bad Bergzabern",
    "lat": 49.1032382,
    "lon": 8.0033719,
    "type": "train"
  },
  {
    "id": "osm-529200797",
    "name": "Bad Bergzabern Thermalbad",
    "lat": 49.0998831,
    "lon": 7.9892246,
    "type": "bus"
  },
  {
    "id": "osm-529200791",
    "name": "Bad Bergzabern, Augspurgermühle",
    "lat": 49.1063498,
    "lon": 7.9717707,
    "type": "bus"
  },
  {
    "id": "osm-913068803",
    "name": "Bad Bergzabern, Augspurgermühle",
    "lat": 49.1064463,
    "lon": 7.9718025,
    "type": "bus"
  },
  {
    "id": "osm-332127514",
    "name": "Bad Bergzabern, Bahnhof",
    "lat": 49.1030252,
    "lon": 8.0033267,
    "type": "bus"
  },
  {
    "id": "osm-1518638328",
    "name": "Bad Bergzabern, Bahnhof",
    "lat": 49.1027256,
    "lon": 8.0027976,
    "type": "bus"
  },
  {
    "id": "osm-1156204754",
    "name": "Bad Bergzabern, Berufsschule",
    "lat": 49.0965616,
    "lon": 8.0044832,
    "type": "bus"
  },
  {
    "id": "osm-1156204756",
    "name": "Bad Bergzabern, Berufsschule",
    "lat": 49.0965965,
    "lon": 8.0045742,
    "type": "bus"
  },
  {
    "id": "osm-332127515",
    "name": "Bad Bergzabern, DEMAG",
    "lat": 49.1019484,
    "lon": 8.0089059,
    "type": "bus"
  },
  {
    "id": "osm-332127516",
    "name": "Bad Bergzabern, DEMAG",
    "lat": 49.1020535,
    "lon": 8.0088485,
    "type": "bus"
  },
  {
    "id": "osm-529200807",
    "name": "Bad Bergzabern, Gehlmühle",
    "lat": 49.110365,
    "lon": 7.9594828,
    "type": "bus"
  },
  {
    "id": "osm-913068850",
    "name": "Bad Bergzabern, Gehlmühle",
    "lat": 49.1105361,
    "lon": 7.9591545,
    "type": "bus"
  },
  {
    "id": "osm-1805576968",
    "name": "Bad Bergzabern, Krankenhaus",
    "lat": 49.1063988,
    "lon": 8.0024096,
    "type": "bus"
  },
  {
    "id": "osm-1805576969",
    "name": "Bad Bergzabern, Krankenhaus",
    "lat": 49.1063549,
    "lon": 8.0025792,
    "type": "bus"
  },
  {
    "id": "osm-529200811",
    "name": "Bad Bergzabern, Landauer Straße",
    "lat": 49.1053733,
    "lon": 8.0097662,
    "type": "bus"
  },
  {
    "id": "osm-1805576970",
    "name": "Bad Bergzabern, Landauer Straße",
    "lat": 49.1054711,
    "lon": 8.0096797,
    "type": "bus"
  },
  {
    "id": "osm-529200804",
    "name": "Bad Bergzabern, Marktplatz",
    "lat": 49.1000221,
    "lon": 7.9967346,
    "type": "bus"
  },
  {
    "id": "osm-1145336570",
    "name": "Bad Bergzabern, Marktplatz",
    "lat": 49.1001847,
    "lon": 7.9966701,
    "type": "bus"
  },
  {
    "id": "osm-1156204751",
    "name": "Bad Bergzabern, Pro Seniore",
    "lat": 49.094904,
    "lon": 8.0040787,
    "type": "bus"
  },
  {
    "id": "osm-1152991397",
    "name": "Bad Bergzabern, Rötzweg",
    "lat": 49.0987677,
    "lon": 7.9924724,
    "type": "bus"
  },
  {
    "id": "osm-1152991412",
    "name": "Bad Bergzabern, Rötzweg",
    "lat": 49.0990334,
    "lon": 7.9924526,
    "type": "bus"
  },
  {
    "id": "osm-2597597874",
    "name": "Bad Bergzabern, Schulzentrum",
    "lat": 49.096249,
    "lon": 7.9960201,
    "type": "bus"
  },
  {
    "id": "osm-2597597876",
    "name": "Bad Bergzabern, Schulzentrum",
    "lat": 49.0962456,
    "lon": 7.9957653,
    "type": "bus"
  },
  {
    "id": "osm-2597597877",
    "name": "Bad Bergzabern, Schulzentrum",
    "lat": 49.0962574,
    "lon": 7.996536,
    "type": "bus"
  },
  {
    "id": "osm-2597597878",
    "name": "Bad Bergzabern, Schulzentrum",
    "lat": 49.0962589,
    "lon": 7.9967258,
    "type": "bus"
  },
  {
    "id": "osm-2597597883",
    "name": "Bad Bergzabern, Schulzentrum",
    "lat": 49.0962833,
    "lon": 7.9983231,
    "type": "bus"
  },
  {
    "id": "osm-11514041016",
    "name": "Bad Bergzabern, Schulzentrum",
    "lat": 49.096277,
    "lon": 7.9978336,
    "type": "bus"
  },
  {
    "id": "osm-11514041021",
    "name": "Bad Bergzabern, Schulzentrum",
    "lat": 49.0962737,
    "lon": 7.9975647,
    "type": "bus"
  },
  {
    "id": "osm-11514041028",
    "name": "Bad Bergzabern, Schulzentrum",
    "lat": 49.0963575,
    "lon": 7.9971477,
    "type": "bus"
  },
  {
    "id": "osm-11514041032",
    "name": "Bad Bergzabern, Schulzentrum",
    "lat": 49.0962908,
    "lon": 7.9969532,
    "type": "bus"
  },
  {
    "id": "osm-529200793",
    "name": "Bad Bergzabern, Stauweiher",
    "lat": 49.1020108,
    "lon": 7.9773033,
    "type": "bus"
  },
  {
    "id": "osm-1811932079",
    "name": "Bad Bergzabern, Stauweiher",
    "lat": 49.101911,
    "lon": 7.9772912,
    "type": "bus"
  },
  {
    "id": "osm-913068855",
    "name": "Bad Bergzabern, Thermalbad",
    "lat": 49.1000479,
    "lon": 7.9890069,
    "type": "bus"
  },
  {
    "id": "osm-3109265533",
    "name": "Bad Herrenalb",
    "lat": 48.8023066,
    "lon": 8.4389132,
    "type": "train"
  },
  {
    "id": "osm-3668906534",
    "name": "Bad Herrenalb Alte Dobler Straße",
    "lat": 48.7978836,
    "lon": 8.4384693,
    "type": "bus"
  },
  {
    "id": "osm-3668906535",
    "name": "Bad Herrenalb Alte Dobler Straße",
    "lat": 48.7979988,
    "lon": 8.4384881,
    "type": "bus"
  },
  {
    "id": "osm-3724971005",
    "name": "Bad Herrenalb Bahnhof",
    "lat": 48.8025135,
    "lon": 8.4392378,
    "type": "bus"
  },
  {
    "id": "osm-3731548118",
    "name": "Bad Herrenalb Bahnhof",
    "lat": 48.8021283,
    "lon": 8.4389748,
    "type": "bus"
  },
  {
    "id": "osm-3731548119",
    "name": "Bad Herrenalb Bahnhof",
    "lat": 48.8023189,
    "lon": 8.4391018,
    "type": "bus"
  },
  {
    "id": "osm-12209228378",
    "name": "Bad Herrenalb Bahnhof",
    "lat": 48.802328,
    "lon": 8.4390785,
    "type": "bus"
  },
  {
    "id": "osm-12209228379",
    "name": "Bad Herrenalb Bahnhof",
    "lat": 48.8025209,
    "lon": 8.4392121,
    "type": "bus"
  },
  {
    "id": "osm-12209228380",
    "name": "Bad Herrenalb Bahnhof",
    "lat": 48.8021394,
    "lon": 8.4389421,
    "type": "bus"
  },
  {
    "id": "osm-3668906536",
    "name": "Bad Herrenalb Birkenwaldstraße",
    "lat": 48.800932,
    "lon": 8.4464417,
    "type": "bus"
  },
  {
    "id": "osm-313179327",
    "name": "Bad Herrenalb Bleiche",
    "lat": 48.8055812,
    "lon": 8.4448804,
    "type": "bus"
  },
  {
    "id": "osm-313179332",
    "name": "Bad Herrenalb Bleiche",
    "lat": 48.8060011,
    "lon": 8.4451041,
    "type": "bus"
  },
  {
    "id": "osm-3668906537",
    "name": "Bad Herrenalb Eichenwaldstraße",
    "lat": 48.802868,
    "lon": 8.4505009,
    "type": "bus"
  },
  {
    "id": "osm-8234530092",
    "name": "Bad Herrenalb Eichenwaldstraße",
    "lat": 48.8016639,
    "lon": 8.4487509,
    "type": "bus"
  },
  {
    "id": "osm-10261108733",
    "name": "Bad Herrenalb Eichenwaldstraße",
    "lat": 48.8016147,
    "lon": 8.4489782,
    "type": "bus"
  },
  {
    "id": "osm-3940322767",
    "name": "Bad Herrenalb Ev. Akademie",
    "lat": 48.8005235,
    "lon": 8.4443483,
    "type": "bus"
  },
  {
    "id": "osm-8234530091",
    "name": "Bad Herrenalb Ev. Akademie",
    "lat": 48.8002702,
    "lon": 8.4447229,
    "type": "bus"
  },
  {
    "id": "osm-313179326",
    "name": "Bad Herrenalb Falkensteinschule",
    "lat": 48.8055266,
    "lon": 8.4503875,
    "type": "bus"
  },
  {
    "id": "osm-3668906541",
    "name": "Bad Herrenalb Freibad",
    "lat": 48.792786,
    "lon": 8.4265382,
    "type": "bus"
  },
  {
    "id": "osm-3668906542",
    "name": "Bad Herrenalb Freibad",
    "lat": 48.7928888,
    "lon": 8.4264282,
    "type": "bus"
  },
  {
    "id": "osm-3724971016",
    "name": "Bad Herrenalb Gernsbacher Straße",
    "lat": 48.7949861,
    "lon": 8.4330224,
    "type": "bus"
  },
  {
    "id": "osm-3724971017",
    "name": "Bad Herrenalb Gernsbacher Straße",
    "lat": 48.7945717,
    "lon": 8.4324523,
    "type": "bus"
  },
  {
    "id": "osm-3668906532",
    "name": "Bad Herrenalb Hotel Post",
    "lat": 48.7976939,
    "lon": 8.4368194,
    "type": "bus"
  },
  {
    "id": "osm-3668906533",
    "name": "Bad Herrenalb Hotel Post",
    "lat": 48.7978119,
    "lon": 8.4367315,
    "type": "bus"
  },
  {
    "id": "osm-2173587442",
    "name": "Bad Herrenalb Kullenmühle",
    "lat": 48.8090458,
    "lon": 8.4438001,
    "type": "bus"
  },
  {
    "id": "osm-3109265532",
    "name": "Bad Herrenalb Kullenmühle",
    "lat": 48.8089639,
    "lon": 8.4440259,
    "type": "train"
  },
  {
    "id": "osm-3668906538",
    "name": "Bad Herrenalb Kullenmühle",
    "lat": 48.8090675,
    "lon": 8.4436706,
    "type": "bus"
  },
  {
    "id": "osm-3668906539",
    "name": "Bad Herrenalb Kurhaus",
    "lat": 48.79913,
    "lon": 8.4371855,
    "type": "bus"
  },
  {
    "id": "osm-3668906540",
    "name": "Bad Herrenalb Kurhaus",
    "lat": 48.7990198,
    "lon": 8.4372882,
    "type": "bus"
  },
  {
    "id": "osm-313179328",
    "name": "Bad Herrenalb Post",
    "lat": 48.8013359,
    "lon": 8.4409715,
    "type": "bus"
  },
  {
    "id": "osm-313179331",
    "name": "Bad Herrenalb Post",
    "lat": 48.8011348,
    "lon": 8.4409419,
    "type": "bus"
  },
  {
    "id": "osm-3724971018",
    "name": "Bad Herrenalb Rathausplatz",
    "lat": 48.7967467,
    "lon": 8.4349751,
    "type": "bus"
  },
  {
    "id": "osm-3724971019",
    "name": "Bad Herrenalb Rathausplatz",
    "lat": 48.7969087,
    "lon": 8.4352608,
    "type": "bus"
  },
  {
    "id": "osm-24982642",
    "name": "Bad Herrenalb Rotenbächle",
    "lat": 48.7915147,
    "lon": 8.4420603,
    "type": "bus"
  },
  {
    "id": "osm-3668906530",
    "name": "Bad Herrenalb Rotenbächle",
    "lat": 48.7912222,
    "lon": 8.4421243,
    "type": "bus"
  },
  {
    "id": "osm-24982638",
    "name": "Bad Herrenalb Sägwasenplatz",
    "lat": 48.795289,
    "lon": 8.438666,
    "type": "bus"
  },
  {
    "id": "osm-3668906531",
    "name": "Bad Herrenalb Sägwasenplatz",
    "lat": 48.7951603,
    "lon": 8.4389102,
    "type": "bus"
  },
  {
    "id": "osm-26619518",
    "name": "Bad Herrenalb Steinhäusle",
    "lat": 48.8201112,
    "lon": 8.4451149,
    "type": "train"
  },
  {
    "id": "osm-5046262151",
    "name": "Bad Liebenzell",
    "lat": 48.7729087,
    "lon": 8.7340998,
    "type": "train"
  },
  {
    "id": "osm-9700986965",
    "name": "Bad Liebenzell Abzw. Burg",
    "lat": 48.7776105,
    "lon": 8.7148511,
    "type": "bus"
  },
  {
    "id": "osm-9700986966",
    "name": "Bad Liebenzell Abzw. Burg",
    "lat": 48.7771032,
    "lon": 8.7158596,
    "type": "bus"
  },
  {
    "id": "osm-7903042663",
    "name": "Bad Liebenzell Bahnhof",
    "lat": 48.7725905,
    "lon": 8.73456,
    "type": "bus"
  },
  {
    "id": "osm-7903042664",
    "name": "Bad Liebenzell Bahnhof",
    "lat": 48.7722179,
    "lon": 8.7343051,
    "type": "bus"
  },
  {
    "id": "osm-9074752918",
    "name": "Bad Liebenzell Bahnhof",
    "lat": 48.7725207,
    "lon": 8.7344795,
    "type": "bus"
  },
  {
    "id": "osm-1076185598",
    "name": "Bad Liebenzell Brühl",
    "lat": 48.7754499,
    "lon": 8.7326015,
    "type": "bus"
  },
  {
    "id": "osm-1012715784",
    "name": "Bad Liebenzell Brühl Haltestelle 1",
    "lat": 48.775471,
    "lon": 8.7326591,
    "type": "bus"
  },
  {
    "id": "osm-11080830404",
    "name": "Bad Liebenzell Brühl Haltestelle 3",
    "lat": 48.7752119,
    "lon": 8.7330057,
    "type": "bus"
  },
  {
    "id": "osm-11080830403",
    "name": "Bad Liebenzell Brühl Haltestelle 4",
    "lat": 48.7752384,
    "lon": 8.7327737,
    "type": "bus"
  },
  {
    "id": "osm-11080883206",
    "name": "Bad Liebenzell Brühl Haltestelle 5",
    "lat": 48.7750343,
    "lon": 8.7331961,
    "type": "bus"
  },
  {
    "id": "osm-11080830402",
    "name": "Bad Liebenzell Brühl Haltestelle 6",
    "lat": 48.7752287,
    "lon": 8.73272,
    "type": "bus"
  },
  {
    "id": "osm-11080883205",
    "name": "Bad Liebenzell Brühl Haltestelle 7",
    "lat": 48.7750873,
    "lon": 8.7329185,
    "type": "bus"
  },
  {
    "id": "osm-7903042662",
    "name": "Bad Liebenzell Hotel Weisse",
    "lat": 48.7716413,
    "lon": 8.7366696,
    "type": "bus"
  },
  {
    "id": "osm-9074752917",
    "name": "Bad Liebenzell Hotel Weisse",
    "lat": 48.771597,
    "lon": 8.7365302,
    "type": "bus"
  },
  {
    "id": "osm-1012715765",
    "name": "Bad Liebenzell Karlstraße",
    "lat": 48.7748705,
    "lon": 8.7300735,
    "type": "bus"
  },
  {
    "id": "osm-1012715774",
    "name": "Bad Liebenzell Karlstraße",
    "lat": 48.7746014,
    "lon": 8.7304658,
    "type": "bus"
  },
  {
    "id": "osm-7903042659",
    "name": "Bad Liebenzell Kurhaus",
    "lat": 48.7714507,
    "lon": 8.7327455,
    "type": "bus"
  },
  {
    "id": "osm-7903042660",
    "name": "Bad Liebenzell Kurhaus",
    "lat": 48.7715303,
    "lon": 8.7323622,
    "type": "bus"
  },
  {
    "id": "osm-6633063559",
    "name": "Bad Liebenzell Mineralbrunnen",
    "lat": 48.7622757,
    "lon": 8.7294269,
    "type": "bus"
  },
  {
    "id": "osm-7903042661",
    "name": "Bad Liebenzell Unterhaugstetter Straße",
    "lat": 48.7712576,
    "lon": 8.7371483,
    "type": "bus"
  },
  {
    "id": "osm-9074753017",
    "name": "Bad Liebenzell Unterhaugstetter Straße",
    "lat": 48.7712845,
    "lon": 8.7370443,
    "type": "bus"
  },
  {
    "id": "osm-7903042657",
    "name": "Bad Liebenzell Waldfriedhof",
    "lat": 48.778656,
    "lon": 8.7398064,
    "type": "bus"
  },
  {
    "id": "osm-7903042658",
    "name": "Bad Liebenzell Waldfriedhof",
    "lat": 48.7785288,
    "lon": 8.7401607,
    "type": "bus"
  },
  {
    "id": "osm-9074752117",
    "name": "Bad Liebenzell Waldfriedhof",
    "lat": 48.7785976,
    "lon": 8.7401045,
    "type": "bus"
  },
  {
    "id": "osm-9074837381",
    "name": "Bad Liebenzell Waldfriedhof",
    "lat": 48.7785711,
    "lon": 8.7400378,
    "type": "bus"
  },
  {
    "id": "osm-692974094",
    "name": "Bad Mingolsheim Bruchsaler Straße",
    "lat": 49.2172482,
    "lon": 8.6526862,
    "type": "bus"
  },
  {
    "id": "osm-692974099",
    "name": "Bad Mingolsheim Bruchsaler Straße",
    "lat": 49.2172503,
    "lon": 8.6528054,
    "type": "bus"
  },
  {
    "id": "osm-539566093",
    "name": "Bad Mingolsheim Kurpark",
    "lat": 49.2169551,
    "lon": 8.6650548,
    "type": "bus"
  },
  {
    "id": "osm-2691707876",
    "name": "Bad Mingolsheim Kurpark",
    "lat": 49.2168107,
    "lon": 8.6651037,
    "type": "bus"
  },
  {
    "id": "osm-7755551226",
    "name": "Bad Mingolsheim Rochus Klinik",
    "lat": 49.2196746,
    "lon": 8.6660476,
    "type": "bus"
  },
  {
    "id": "osm-768632244",
    "name": "Bad Mingolsheim Rochus-Klinik",
    "lat": 49.2197365,
    "lon": 8.6661133,
    "type": "bus"
  },
  {
    "id": "osm-1785972253",
    "name": "Bad Mingolsheim Schettler-Weil-Klinik",
    "lat": 49.2166706,
    "lon": 8.6722843,
    "type": "bus"
  },
  {
    "id": "osm-7755542231",
    "name": "Bad Mingolsheim Schettler-Weil-Klinik",
    "lat": 49.2167031,
    "lon": 8.6724103,
    "type": "bus"
  },
  {
    "id": "osm-264271009",
    "name": "Bad Mingolsheim Thermarium",
    "lat": 49.2191303,
    "lon": 8.6682283,
    "type": "bus"
  },
  {
    "id": "osm-7755551227",
    "name": "Bad Mingolsheim Thermarium",
    "lat": 49.2190628,
    "lon": 8.6682333,
    "type": "bus"
  },
  {
    "id": "osm-508306901",
    "name": "Bad Mingolsheim Volksbank",
    "lat": 49.218671,
    "lon": 8.6590536,
    "type": "bus"
  },
  {
    "id": "osm-528190744",
    "name": "Bad Mingolsheim Volksbank",
    "lat": 49.2187136,
    "lon": 8.6593483,
    "type": "bus"
  },
  {
    "id": "osm-3112878988",
    "name": "Bad Rotenfels Bahnhof/Rotherma",
    "lat": 48.8157274,
    "lon": 8.3033052,
    "type": "train"
  },
  {
    "id": "osm-8222121763",
    "name": "Bad Rotenfels Glasersteg",
    "lat": 48.8084811,
    "lon": 8.3151564,
    "type": "bus"
  },
  {
    "id": "osm-8222121767",
    "name": "Bad Rotenfels Glasersteg",
    "lat": 48.8083773,
    "lon": 8.3151356,
    "type": "bus"
  },
  {
    "id": "osm-8222121770",
    "name": "Bad Rotenfels Ludwig-Erhard-Straße",
    "lat": 48.8101749,
    "lon": 8.316951,
    "type": "bus"
  },
  {
    "id": "osm-8222121771",
    "name": "Bad Rotenfels Ludwig-Erhard-Straße",
    "lat": 48.8101282,
    "lon": 8.3168658,
    "type": "bus"
  },
  {
    "id": "osm-248002523",
    "name": "Bad Rotenfels Rotherma",
    "lat": 48.8083777,
    "lon": 8.3027371,
    "type": "bus"
  },
  {
    "id": "osm-3112878989",
    "name": "Bad Rotenfels Schloss",
    "lat": 48.8199892,
    "lon": 8.2970666,
    "type": "train"
  },
  {
    "id": "osm-1748710343",
    "name": "Bad Rotenfels Schulzentrum Dachgrub",
    "lat": 48.8147503,
    "lon": 8.3126693,
    "type": "bus"
  },
  {
    "id": "osm-3112878990",
    "name": "Bad Rotenfels Weinbrennerstraße",
    "lat": 48.8112453,
    "lon": 8.3124966,
    "type": "train"
  },
  {
    "id": "osm-3175310442",
    "name": "Bad Schönborn Süd",
    "lat": 49.2001753,
    "lon": 8.6419858,
    "type": "train"
  },
  {
    "id": "osm-2069536884",
    "name": "Bad Schönborn-Kronau",
    "lat": 49.2195714,
    "lon": 8.6468851,
    "type": "train"
  },
  {
    "id": "osm-518670533",
    "name": "Bad Schönborn-Kronau Bahnhof",
    "lat": 49.2193575,
    "lon": 8.6471308,
    "type": "bus"
  },
  {
    "id": "osm-13165484250",
    "name": "Bad Schönborn-Kronau Bahnhof",
    "lat": 49.2196256,
    "lon": 8.6472591,
    "type": "bus"
  },
  {
    "id": "osm-6483804854",
    "name": "Bad Teinach-Neubulach",
    "lat": 48.6784597,
    "lon": 8.7271629,
    "type": "train"
  },
  {
    "id": "osm-249329332",
    "name": "Bad Wildbad Bahnhof",
    "lat": 48.7555586,
    "lon": 8.5510705,
    "type": "train"
  },
  {
    "id": "osm-1094617083",
    "name": "Bad Wildbad Bätznerstraße 130",
    "lat": 48.7460135,
    "lon": 8.5444682,
    "type": "bus"
  },
  {
    "id": "osm-1003187705",
    "name": "Bad Wildbad Bismarckinsel",
    "lat": 48.7535739,
    "lon": 8.5496903,
    "type": "bus"
  },
  {
    "id": "osm-9699962392",
    "name": "Bad Wildbad Hallenbad/Gymn.",
    "lat": 48.756851,
    "lon": 8.5500522,
    "type": "bus"
  },
  {
    "id": "osm-9699962399",
    "name": "Bad Wildbad Hallenbad/Gymn.",
    "lat": 48.7567128,
    "lon": 8.5499658,
    "type": "bus"
  },
  {
    "id": "osm-9689621643",
    "name": "Bad Wildbad Hochwiese",
    "lat": 48.7389574,
    "lon": 8.5396251,
    "type": "bus"
  },
  {
    "id": "osm-1094617947",
    "name": "Bad Wildbad Hochwiesenstraße",
    "lat": 48.7426929,
    "lon": 8.5441906,
    "type": "bus"
  },
  {
    "id": "osm-1094618498",
    "name": "Bad Wildbad Jahnweg",
    "lat": 48.7436566,
    "lon": 8.5453812,
    "type": "bus"
  },
  {
    "id": "osm-661356984",
    "name": "Bad Wildbad Kernerstraße/Tankstelle",
    "lat": 48.7420138,
    "lon": 8.5476929,
    "type": "bus"
  },
  {
    "id": "osm-369045881",
    "name": "Bad Wildbad Kurpark",
    "lat": 48.7468483,
    "lon": 8.5499951,
    "type": "bus"
  },
  {
    "id": "osm-6434724464",
    "name": "Bad Wildbad Kurpark",
    "lat": 48.7486482,
    "lon": 8.5505095,
    "type": "tram"
  },
  {
    "id": "osm-9097359985",
    "name": "Bad Wildbad Kurpark",
    "lat": 48.7470176,
    "lon": 8.5500482,
    "type": "bus"
  },
  {
    "id": "osm-6434724470",
    "name": "Bad Wildbad Nord",
    "lat": 48.7638569,
    "lon": 8.5549507,
    "type": "train"
  },
  {
    "id": "osm-9699962391",
    "name": "Bad Wildbad Paulinenstraße",
    "lat": 48.7605876,
    "lon": 8.5512277,
    "type": "bus"
  },
  {
    "id": "osm-9699962400",
    "name": "Bad Wildbad Paulinenstraße",
    "lat": 48.7604538,
    "lon": 8.5510302,
    "type": "bus"
  },
  {
    "id": "osm-370934565",
    "name": "Bad Wildbad Schwarzer Weg",
    "lat": 48.7603709,
    "lon": 8.5523493,
    "type": "bus"
  },
  {
    "id": "osm-370934566",
    "name": "Bad Wildbad Schwarzer Weg",
    "lat": 48.7611803,
    "lon": 8.552187,
    "type": "bus"
  },
  {
    "id": "osm-1094618460",
    "name": "Bad Wildbad Sonnenweg",
    "lat": 48.7405501,
    "lon": 8.540304,
    "type": "bus"
  },
  {
    "id": "osm-1094618697",
    "name": "Bad Wildbad Sonnenweg",
    "lat": 48.7404165,
    "lon": 8.5403895,
    "type": "bus"
  },
  {
    "id": "osm-6434724458",
    "name": "Bad Wildbad Uhlandplatz/Sommerbergbahn",
    "lat": 48.7508058,
    "lon": 8.5494192,
    "type": "tram"
  },
  {
    "id": "osm-1126762815",
    "name": "Bad Wildbad Vital Therme",
    "lat": 48.748084,
    "lon": 8.54717,
    "type": "bus"
  },
  {
    "id": "osm-9699962407",
    "name": "Bad Wildbad Waldfriedhof",
    "lat": 48.7647466,
    "lon": 8.554335,
    "type": "bus"
  },
  {
    "id": "osm-1023876592",
    "name": "Bad Wildbad Wilhelmschule",
    "lat": 48.7526994,
    "lon": 8.550778,
    "type": "bus"
  },
  {
    "id": "osm-661356954",
    "name": "Bad Wildbad Windhof",
    "lat": 48.7373733,
    "lon": 8.5449287,
    "type": "bus"
  },
  {
    "id": "osm-661356958",
    "name": "Bad Wildbad Windhof",
    "lat": 48.7374504,
    "lon": 8.5450474,
    "type": "bus"
  },
  {
    "id": "osm-1011697795",
    "name": "Bad Wildbad Ziegelhütte/Sportplatz",
    "lat": 48.735518,
    "lon": 8.544758,
    "type": "bus"
  },
  {
    "id": "osm-661356979",
    "name": "Bad Wildbad Ziegelsteigle",
    "lat": 48.7406246,
    "lon": 8.547275,
    "type": "bus"
  },
  {
    "id": "osm-7519475991",
    "name": "Bad Wildbad, Zeltplatz",
    "lat": 48.7082861,
    "lon": 8.5405344,
    "type": "bus"
  },
  {
    "id": "osm-7519475992",
    "name": "Bad Wildbad, Zeltplatz",
    "lat": 48.708233,
    "lon": 8.5405853,
    "type": "bus"
  },
  {
    "id": "osm-2931245709",
    "name": "Baden-Baden",
    "lat": 48.7904421,
    "lon": 8.1910627,
    "type": "train"
  },
  {
    "id": "osm-550042226",
    "name": "Baden-Baden Augustaplatz/Museum Burda",
    "lat": 48.7585739,
    "lon": 8.2411158,
    "type": "bus"
  },
  {
    "id": "osm-550042227",
    "name": "Baden-Baden Augustaplatz/Museum Burda",
    "lat": 48.7581613,
    "lon": 8.241486,
    "type": "bus"
  },
  {
    "id": "osm-8222145017",
    "name": "Baden-Baden Augustaplatz/Museum Burda",
    "lat": 48.7583438,
    "lon": 8.2410617,
    "type": "bus"
  },
  {
    "id": "osm-8222145018",
    "name": "Baden-Baden Augustaplatz/Museum Burda",
    "lat": 48.7584221,
    "lon": 8.2408498,
    "type": "bus"
  },
  {
    "id": "osm-8222145019",
    "name": "Baden-Baden Augustaplatz/Museum Burda",
    "lat": 48.7583009,
    "lon": 8.2409383,
    "type": "bus"
  },
  {
    "id": "osm-8222145020",
    "name": "Baden-Baden Augustaplatz/Museum Burda",
    "lat": 48.758186,
    "lon": 8.2410362,
    "type": "bus"
  },
  {
    "id": "osm-570156730",
    "name": "Baden-Baden Bahnhof",
    "lat": 48.7895535,
    "lon": 8.1909625,
    "type": "bus"
  },
  {
    "id": "osm-3960386783",
    "name": "Baden-Baden Bahnhof",
    "lat": 48.789431,
    "lon": 8.190601,
    "type": "bus"
  },
  {
    "id": "osm-3960386784",
    "name": "Baden-Baden Bahnhof",
    "lat": 48.7895269,
    "lon": 8.1907005,
    "type": "bus"
  },
  {
    "id": "osm-3978556048",
    "name": "Baden-Baden Bahnhof",
    "lat": 48.7896648,
    "lon": 8.190828,
    "type": "bus"
  },
  {
    "id": "osm-3978556049",
    "name": "Baden-Baden Bahnhof",
    "lat": 48.7894836,
    "lon": 8.1908962,
    "type": "bus"
  },
  {
    "id": "osm-3978556050",
    "name": "Baden-Baden Bahnhof",
    "lat": 48.7896394,
    "lon": 8.1910553,
    "type": "bus"
  },
  {
    "id": "osm-6005328869",
    "name": "Baden-Baden Bahnhof",
    "lat": 48.7894602,
    "lon": 8.1912725,
    "type": "bus"
  },
  {
    "id": "osm-32132040",
    "name": "Baden-Baden Bauernfeldstraße",
    "lat": 48.7815561,
    "lon": 8.199896,
    "type": "bus"
  },
  {
    "id": "osm-6402214666",
    "name": "Baden-Baden Bauernfeldstraße",
    "lat": 48.78146,
    "lon": 8.1998394,
    "type": "bus"
  },
  {
    "id": "osm-17558606",
    "name": "Baden-Baden Bertholdplatz",
    "lat": 48.755523,
    "lon": 8.2435356,
    "type": "bus"
  },
  {
    "id": "osm-1883765772",
    "name": "Baden-Baden Bertholdplatz",
    "lat": 48.7553151,
    "lon": 8.2435297,
    "type": "bus"
  },
  {
    "id": "osm-32908446",
    "name": "Baden-Baden Caracalla-Therme",
    "lat": 48.7625051,
    "lon": 8.2443293,
    "type": "bus"
  },
  {
    "id": "osm-2553205301",
    "name": "Baden-Baden Caracalla-Therme",
    "lat": 48.762586,
    "lon": 8.2442138,
    "type": "bus"
  },
  {
    "id": "osm-528107399",
    "name": "Baden-Baden Dreieichenkapelle",
    "lat": 48.7780382,
    "lon": 8.2178154,
    "type": "bus"
  },
  {
    "id": "osm-2552169972",
    "name": "Baden-Baden Dreieichenkapelle",
    "lat": 48.7779598,
    "lon": 8.2175589,
    "type": "bus"
  },
  {
    "id": "osm-396003801",
    "name": "Baden-Baden Ebertplatz",
    "lat": 48.771549,
    "lon": 8.2259928,
    "type": "bus"
  },
  {
    "id": "osm-528107402",
    "name": "Baden-Baden Ebertplatz",
    "lat": 48.7721877,
    "lon": 8.2255316,
    "type": "bus"
  },
  {
    "id": "osm-32206373",
    "name": "Baden-Baden Falkenstraße",
    "lat": 48.7530671,
    "lon": 8.2465208,
    "type": "bus"
  },
  {
    "id": "osm-325190473",
    "name": "Baden-Baden Festspielhaus/Alter Bahnhof",
    "lat": 48.7676374,
    "lon": 8.2327829,
    "type": "bus"
  },
  {
    "id": "osm-2552169979",
    "name": "Baden-Baden Festspielhaus/Alter Bahnhof",
    "lat": 48.7676842,
    "lon": 8.2324212,
    "type": "bus"
  },
  {
    "id": "osm-33731085",
    "name": "Baden-Baden Friedrichshöhe",
    "lat": 48.7614884,
    "lon": 8.2533255,
    "type": "bus"
  },
  {
    "id": "osm-5421007104",
    "name": "Baden-Baden Friedrichshöhe",
    "lat": 48.7619677,
    "lon": 8.252895,
    "type": "bus"
  },
  {
    "id": "osm-7602415082",
    "name": "Baden-Baden Friedrichshöhe",
    "lat": 48.7622218,
    "lon": 8.2526787,
    "type": "bus"
  },
  {
    "id": "osm-8708788492",
    "name": "Baden-Baden Friedrichshöhe",
    "lat": 48.7620945,
    "lon": 8.2532604,
    "type": "bus"
  },
  {
    "id": "osm-8418902218",
    "name": "Baden-Baden Gausplatz",
    "lat": 48.7549262,
    "lon": 8.2422808,
    "type": "bus"
  },
  {
    "id": "osm-8418902222",
    "name": "Baden-Baden Gausplatz",
    "lat": 48.754821,
    "lon": 8.2422902,
    "type": "bus"
  },
  {
    "id": "osm-534285787",
    "name": "Baden-Baden Gewerbepark Cité",
    "lat": 48.7840968,
    "lon": 8.1952552,
    "type": "bus"
  },
  {
    "id": "osm-6404539376",
    "name": "Baden-Baden Gewerbepark Cité",
    "lat": 48.7840236,
    "lon": 8.1950588,
    "type": "bus"
  },
  {
    "id": "osm-8418888605",
    "name": "Baden-Baden Golfplatz",
    "lat": 48.7469203,
    "lon": 8.2118458,
    "type": "bus"
  },
  {
    "id": "osm-8418888607",
    "name": "Baden-Baden Golfplatz",
    "lat": 48.7470441,
    "lon": 8.2115118,
    "type": "bus"
  },
  {
    "id": "osm-528107400",
    "name": "Baden-Baden Große Dollenstraße",
    "lat": 48.7744346,
    "lon": 8.2231473,
    "type": "bus"
  },
  {
    "id": "osm-2552169990",
    "name": "Baden-Baden Große Dollenstraße",
    "lat": 48.7740627,
    "lon": 8.2234088,
    "type": "bus"
  },
  {
    "id": "osm-8222132714",
    "name": "Baden-Baden Hans-Bredow-Straße (SWR)",
    "lat": 48.7523413,
    "lon": 8.225635,
    "type": "bus"
  },
  {
    "id": "osm-8222132716",
    "name": "Baden-Baden Hans-Bredow-Straße (SWR)",
    "lat": 48.7523926,
    "lon": 8.225513,
    "type": "bus"
  },
  {
    "id": "osm-2572554238",
    "name": "Baden-Baden Haueneberstein",
    "lat": 48.8118668,
    "lon": 8.2090421,
    "type": "train"
  },
  {
    "id": "osm-8708788496",
    "name": "Baden-Baden Hauptfriedhof",
    "lat": 48.7587315,
    "lon": 8.2506184,
    "type": "bus"
  },
  {
    "id": "osm-4920995936",
    "name": "Baden-Baden Hindenburgplatz/Kaiserallee",
    "lat": 48.7640002,
    "lon": 8.2362816,
    "type": "bus"
  },
  {
    "id": "osm-325190476",
    "name": "Baden-Baden Hindenburgplatz/Stadtbibliothek",
    "lat": 48.7641959,
    "lon": 8.2370546,
    "type": "bus"
  },
  {
    "id": "osm-2552169996",
    "name": "Baden-Baden Hindenburgplatz/Stadtbibliothek",
    "lat": 48.7639505,
    "lon": 8.2368198,
    "type": "bus"
  },
  {
    "id": "osm-32132017",
    "name": "Baden-Baden Hubertusstraße",
    "lat": 48.7804816,
    "lon": 8.2038552,
    "type": "bus"
  },
  {
    "id": "osm-6404555558",
    "name": "Baden-Baden Hubertusstraße",
    "lat": 48.780354,
    "lon": 8.203795,
    "type": "bus"
  },
  {
    "id": "osm-31379128",
    "name": "Baden-Baden Kleine Dollenstraße",
    "lat": 48.7760971,
    "lon": 8.2204978,
    "type": "bus"
  },
  {
    "id": "osm-2552170003",
    "name": "Baden-Baden Kleine Dollenstraße",
    "lat": 48.7759423,
    "lon": 8.2204319,
    "type": "bus"
  },
  {
    "id": "osm-570156751",
    "name": "Baden-Baden Kuppenheimer Straße",
    "lat": 48.7920373,
    "lon": 8.1945845,
    "type": "bus"
  },
  {
    "id": "osm-570156783",
    "name": "Baden-Baden Kuppenheimer Straße",
    "lat": 48.7924382,
    "lon": 8.1947987,
    "type": "bus"
  },
  {
    "id": "osm-570156799",
    "name": "Baden-Baden Kuppenheimer Straße",
    "lat": 48.7925475,
    "lon": 8.1962752,
    "type": "bus"
  },
  {
    "id": "osm-8708788508",
    "name": "Baden-Baden Kurfürstenstraße",
    "lat": 48.7614509,
    "lon": 8.2482125,
    "type": "bus"
  },
  {
    "id": "osm-8708788509",
    "name": "Baden-Baden Kurfürstenstraße",
    "lat": 48.7616145,
    "lon": 8.2481582,
    "type": "bus"
  },
  {
    "id": "osm-813573659",
    "name": "Baden-Baden Leopoldsplatz (Luisenstraße)",
    "lat": 48.7617413,
    "lon": 8.2385952,
    "type": "bus"
  },
  {
    "id": "osm-3960386782",
    "name": "Baden-Baden Leopoldsplatz (Luisenstraße)",
    "lat": 48.7612465,
    "lon": 8.2394011,
    "type": "bus"
  },
  {
    "id": "osm-557907524",
    "name": "Baden-Baden Leopoldsplatz (Sophienstraße)",
    "lat": 48.761244,
    "lon": 8.2401449,
    "type": "bus"
  },
  {
    "id": "osm-557907530",
    "name": "Baden-Baden Leopoldsplatz (Sophienstraße)",
    "lat": 48.7612045,
    "lon": 8.2406207,
    "type": "bus"
  },
  {
    "id": "osm-8418902224",
    "name": "Baden-Baden Lichtentaler Allee/Museen",
    "lat": 48.7548024,
    "lon": 8.238875,
    "type": "bus"
  },
  {
    "id": "osm-8418902225",
    "name": "Baden-Baden Lichtentaler Allee/Museen",
    "lat": 48.7548369,
    "lon": 8.2386518,
    "type": "bus"
  },
  {
    "id": "osm-8708799818",
    "name": "Baden-Baden Lilienmattstraße",
    "lat": 48.7650347,
    "lon": 8.2528017,
    "type": "bus"
  },
  {
    "id": "osm-8708799819",
    "name": "Baden-Baden Lilienmattstraße",
    "lat": 48.765589,
    "lon": 8.2530552,
    "type": "bus"
  },
  {
    "id": "osm-8708788498",
    "name": "Baden-Baden Markgrafenplatz",
    "lat": 48.7590772,
    "lon": 8.2469572,
    "type": "bus"
  },
  {
    "id": "osm-8708788499",
    "name": "Baden-Baden Markgrafenplatz",
    "lat": 48.7589379,
    "lon": 8.2470484,
    "type": "bus"
  },
  {
    "id": "osm-8708788501",
    "name": "Baden-Baden Markgrafenplatz",
    "lat": 48.7587076,
    "lon": 8.2471021,
    "type": "bus"
  },
  {
    "id": "osm-3951874073",
    "name": "Baden-Baden Maximilianstraße",
    "lat": 48.7519318,
    "lon": 8.248742,
    "type": "bus"
  },
  {
    "id": "osm-144081658",
    "name": "Baden-Baden Maximilianstraße/Falkenstraße",
    "lat": 48.7518207,
    "lon": 8.2486461,
    "type": "bus"
  },
  {
    "id": "osm-8708788482",
    "name": "Baden-Baden Merkurwald",
    "lat": 48.7626581,
    "lon": 8.2645116,
    "type": "bus"
  },
  {
    "id": "osm-8708788487",
    "name": "Baden-Baden Obere Prinz-Weimar-Straße",
    "lat": 48.7607216,
    "lon": 8.2498339,
    "type": "bus"
  },
  {
    "id": "osm-8708788488",
    "name": "Baden-Baden Obere Prinz-Weimar-Straße",
    "lat": 48.7605748,
    "lon": 8.2493256,
    "type": "bus"
  },
  {
    "id": "osm-319972196",
    "name": "Baden-Baden Obere Schußbach",
    "lat": 48.7872958,
    "lon": 8.2144318,
    "type": "bus"
  },
  {
    "id": "osm-319972199",
    "name": "Baden-Baden Obere Schußbach",
    "lat": 48.787046,
    "lon": 8.2145989,
    "type": "bus"
  },
  {
    "id": "osm-287472289",
    "name": "Baden-Baden Ooswinkel",
    "lat": 48.777249,
    "lon": 8.2126598,
    "type": "bus"
  },
  {
    "id": "osm-287472290",
    "name": "Baden-Baden Ooswinkel",
    "lat": 48.7771562,
    "lon": 8.212499,
    "type": "bus"
  },
  {
    "id": "osm-8418888582",
    "name": "Baden-Baden Oskar-Schlemmer-Platz",
    "lat": 48.7538939,
    "lon": 8.2340021,
    "type": "bus"
  },
  {
    "id": "osm-8418902226",
    "name": "Baden-Baden Oskar-Schlemmer-Platz",
    "lat": 48.7537794,
    "lon": 8.2340987,
    "type": "bus"
  },
  {
    "id": "osm-2572553558",
    "name": "Baden-Baden Rebland",
    "lat": 48.7337369,
    "lon": 8.1465943,
    "type": "train"
  },
  {
    "id": "osm-557907534",
    "name": "Baden-Baden Rheumazentrum",
    "lat": 48.7634004,
    "lon": 8.247147,
    "type": "bus"
  },
  {
    "id": "osm-4604163541",
    "name": "Baden-Baden Römerweg",
    "lat": 48.7840548,
    "lon": 8.2027976,
    "type": "bus"
  },
  {
    "id": "osm-8418888594",
    "name": "Baden-Baden Schirmhofweg",
    "lat": 48.750537,
    "lon": 8.2221629,
    "type": "bus"
  },
  {
    "id": "osm-8418888600",
    "name": "Baden-Baden Schirmhofweg",
    "lat": 48.7509287,
    "lon": 8.2226792,
    "type": "bus"
  },
  {
    "id": "osm-6402015832",
    "name": "Baden-Baden Schußbachstraße",
    "lat": 48.7866433,
    "lon": 8.2087702,
    "type": "bus"
  },
  {
    "id": "osm-8706736228",
    "name": "Baden-Baden Schußbachstraße",
    "lat": 48.7864951,
    "lon": 8.2085158,
    "type": "bus"
  },
  {
    "id": "osm-6404555556",
    "name": "Baden-Baden Schwarzwaldstraße",
    "lat": 48.780275,
    "lon": 8.2055933,
    "type": "bus"
  },
  {
    "id": "osm-6404555557",
    "name": "Baden-Baden Schwarzwaldstraße",
    "lat": 48.7801687,
    "lon": 8.2055656,
    "type": "bus"
  },
  {
    "id": "osm-528107397",
    "name": "Baden-Baden Schweigrother Platz",
    "lat": 48.7817729,
    "lon": 8.2096032,
    "type": "bus"
  },
  {
    "id": "osm-2552170041",
    "name": "Baden-Baden Schweigrother Platz",
    "lat": 48.7815608,
    "lon": 8.2094247,
    "type": "bus"
  },
  {
    "id": "osm-6404525314",
    "name": "Baden-Baden Schweigrother Platz",
    "lat": 48.7817276,
    "lon": 8.2101089,
    "type": "bus"
  },
  {
    "id": "osm-32627001",
    "name": "Baden-Baden Sinzheimer Straße",
    "lat": 48.7871025,
    "lon": 8.1944569,
    "type": "bus"
  },
  {
    "id": "osm-813573673",
    "name": "Baden-Baden Sinzheimer Straße",
    "lat": 48.7868862,
    "lon": 8.1945592,
    "type": "bus"
  },
  {
    "id": "osm-13252017481",
    "name": "Baden-Baden Sinzheimer Straße (Süd)",
    "lat": 48.7868929,
    "lon": 8.193777,
    "type": "bus"
  },
  {
    "id": "osm-13252017482",
    "name": "Baden-Baden Sinzheimer Straße (Süd)",
    "lat": 48.786841,
    "lon": 8.1935001,
    "type": "bus"
  },
  {
    "id": "osm-8418888586",
    "name": "Baden-Baden Stadelhoferstraße",
    "lat": 48.7534169,
    "lon": 8.2296355,
    "type": "bus"
  },
  {
    "id": "osm-8418888587",
    "name": "Baden-Baden Stadelhoferstraße",
    "lat": 48.753233,
    "lon": 8.2304053,
    "type": "bus"
  },
  {
    "id": "osm-952136117",
    "name": "Baden-Baden Tiergarten/cts-Klinik",
    "lat": 48.7491734,
    "lon": 8.2183244,
    "type": "bus"
  },
  {
    "id": "osm-8222132712",
    "name": "Baden-Baden Tiergarten/cts-Klinik",
    "lat": 48.7491173,
    "lon": 8.2182133,
    "type": "bus"
  },
  {
    "id": "osm-8222132713",
    "name": "Baden-Baden Tiergarten/cts-Klinik",
    "lat": 48.7490479,
    "lon": 8.2183179,
    "type": "bus"
  },
  {
    "id": "osm-8708788511",
    "name": "Baden-Baden Untere Prinz-Weimar-Straße",
    "lat": 48.7637794,
    "lon": 8.2511039,
    "type": "bus"
  },